[
  {
    "type": "Feature",
    "geometry": { "type": "Point", "coordinates": [-121.88382, 37.33829] },
    "properties": {
      "title": "7th Street Mural Project",
      "description": "You can find this mural on the exterior side of Grocery Outlet. This mural is painted by <a href='https://www.facebook.com/SerinaSerjama' target='_blank'>Serina Serjama</a>, in collaboration with <a href='https://www.facebook.com/WomenRisingSJ/' target='_blank'>Women Rising San José</a> and <a href='https://www.facebook.com/HeartofChaosArtisanCollective' target='_blank'>Heart of Chaos</a>. <br/><br/>Image Source: Yan-Yin Choy.",
      "image": "img/7thStMuralProject_muralby_SerinaSerjama_WomenRisingSJ_HeartofChaos_photoby_YanYinChoy.jpg",
      "artist": "Serina Serjama, Women Rising San José, and Heart of Chaos",
      "address": "29 S 7th Street",
      "city": "San José",
      "country": "United States",
      "postalCode": "95113",
      "state": "CA"
    },
    "id": 3913690533
  },
  {
    "type": "Feature",
    "geometry": { "type": "Point", "coordinates": [-121.80626, 37.34729] },
    "properties": {
      "title": "A Seed of Infinite Creation",
      "artist": "<a href='https://www.carlosrodriguezart.com/' target='_blank'>Carlos Rodriguez</a>",
      "description": "This mural was painted by artist <a href='https://www.carlosrodriguezart.com/' target='_blank'>Carlos Rodriguez</a> and produced in collaboration with City Year San José and Mt Pleasant High School community; it is located at Mt. Pleasant High School. Source: Carlos Rodriguez",
      "address": "1750 S White Rd",
      "city": "San José",
      "country": "United States",
      "postalCode": "95127",
      "state": "CA",
      "sourceURL": "https://www.carlosrodriguezart.com/"
    },
    "id": 2833781857
  },
  {
    "type": "Feature",
    "geometry": { "type": "Point", "coordinates": [-121.89625, 37.33462] },
    "properties": {
      "title": "Afternoon",
      "description": "'Afternoon' was painted by Sainer and produced in collaboration with <a href='https://www.empiresevenstudios.com' target='_blank'>Empire Seven Studios</a>.<br/><br/><br/>Image Source: <a href='https://www.empiresevenstudios.com' target='_blank'>Empire Seven Studios</a>. Source: Empire Seven Studios, https://www.empiresevenstudios.com",
      "image": "https://static1.squarespace.com/static/5681ee28841abae3b7d8dec9/5681f5521c12101f97a4de89/5849d43ce58c620b5971f8da/1489697022793/Afternoon+for+website.jpg",
      "artist": "Sainer",
      "address": "87 N Almaden Blvd",
      "city": "San José",
      "country": "United States",
      "crossStreet": "at N Almaden Blvd and W St John St.",
      "postalCode": "95110",
      "state": "CA",
      "sourceURL": "https://www.empiresevenstudios.com"
    },
    "id": 2147566101
  },
  {
    "type": "Feature",
    "geometry": { "type": "Point", "coordinates": [-121.88613, 37.33066] },
    "properties": {
      "title": "Anno Domini Collage",
      "image": "img/Annodomini-collage_mural_by_CarolynRyderCooley_LenaWolff_DanielJesseLewis_JessieRoseVala_DavidChoe_Bruno9Li_Klone_AdrianLee_KnowHope_photoby_YanYinChoy.jpg",
      "artist": "Carolyn Ryder Cooley, Lena Wolff, Daniel Jesse Lewis, Jessie Rose Vala, David Choe, Bruno 9Li, Klone, Adrian Lee, and Know Hope",
      "address": "366 S 1st St.",
      "description": "This mural collage is located on the exterior wall of Anno Domini gallery; these murals are painted by Carolyn Ryder Cooley, Lena Wolff, Daniel Jesse Lewis, Jessie Rose Vala, David Choe, Bruno 9Li, Klone, Adrian Lee, and Know Hope. These murals were produced by <a href='http://galleryad.com/' target='_blank'>Anno Domini</a>. <br/><br/><br/>Image Source: Yan-Yin Choy.",
      "city": "San José",
      "country": "United States",
      "postalCode": "95113",
      "state": "CA",
      "sourceURL": "http://www.kqed.org/arts/11741855/find-beauty-in-the-streets-of-san-jose-this-summer"
    },
    "id": 508819365
  },
  {
    "type": "Feature",
    "geometry": { "type": "Point", "coordinates": [-121.85488, 37.35251] },
    "properties": {
      "title": "Artistic Mestizaje",
      "artist": "Carlos Perez",
      "description": "This mural was painted by Carlos Perez. It is located inside the Mexican Heritage Plaza.",
      "address": "1700 Alum Rock Ave",
      "city": "San José",
      "country": "United States",
      "crossStreet": "at Alum Rock and King Rd",
      "postalCode": "95116",
      "state": "CA"
    },
    "id": 946675232
  },
  {
    "type": "Feature",
    "geometry": { "type": "Point", "coordinates": [-121.894, 37.31928] },
    "properties": {
      "title": "Aztec Calendar Mural",
      "artist": "Antonio Torres",
      "description": "This mural is located at Briebach Park, near the basketball courts. Source: Velasquez, Carlos. “Community Mural Bike Ride, 3/4 - San Jose.“ Ride With GPS, 3, March. 2017, https://ridewithgps.com/routes/18919994",
      "address": "450 W Virginia St.",
      "city": "San José",
      "country": "United States",
      "postalCode": "95125",
      "state": "CA",
      "sourceURL": "https://ridewithgps.com/routes/18919994"
    },
    "id": 165118247
  },
  {
    "type": "Feature",
    "geometry": { "type": "Point", "coordinates": [-121.88425, 37.35127] },
    "properties": {
      "title": "Backesto Park Mural",
      "description": "Katrina Marie Loera painted this mural around 2010. It's located on the side of the handball court in Backesto Park, on the 500 block of N 13th Street. Thanks Jackie Vasquez for sharing this information.",
      "artist": "<a href='https://sanjosecreatives.blogspot.com/2011/12/katrina-marie-loera.html' target='_blank'>Katrina Marie Loera</a>",
      "website": "https://sanjosecreatives.blogspot.com/2011/12/katrina-marie-loera.html",
      "address": "512 N. 13th St",
      "city": "San José",
      "country": "United States",
      "postalCode": "95112",
      "state": "CA"
    },
    "id": 1470780600
  },
  {
    "type": "Feature",
    "geometry": { "type": "Point", "coordinates": [-121.91303, 37.33204] },
    "properties": {
      "title": "Bike Mural at Peet's Coffee on The Alameda",
      "artist": "<a href='http://www.gemellosmurals.com/' target='_blank'>Lila Gemellos</a>",
      "description": "As part of the Rolling Your Way Bike mural series On The Alameda, in July 2016, <a href='http://www.gemellosmurals.com/' target='_blank'>Lila Gemellos</a> painted a bike mural on the exterior wall of Peet's Coffee on The Alameda. The mural was and produced in collaboration with the <a href='https://www.exhibitiondistrict.com/' target='_blank'>Exhibition District</a> and Alameda Business Association. <br/><br/> Source: Gemellos, Lila. “Interactive Mural Projects” Creative Force Lila Gemellos, 28 Mar. 2018, http://www.gemellosmurals.com/portfolio/interactive-mural-projects/",
      "address": "1295 The Alameda",
      "city": "San José",
      "country": "United States",
      "postalCode": "95126",
      "state": "CA",
      "sourceURL": "http://www.gemellosmurals.com/portfolio/interactive-mural-projects/"
    },
    "id": 190209497
  },
  {
    "type": "Feature",
    "geometry": { "type": "Point", "coordinates": [-121.89062, 37.34796] },
    "properties": {
      "title": "Butterflies",
      "description": "This mural was painted by Ivan Gonzales. It is located near the corner of 7th and Empire. <br/> Source: Empire Seven Studios, Rasteroids, and Genevieve Santos. “Japantown Artwalk Map.“ Japantown Artwalk, 2017, http://jtownartwalk.com/wp-content/uploads/2016/06/jtown-artwalk-map-1.pdf",
      "artist": "Ivan Gonzales",
      "address": "298 E Empire St",
      "city": "San José",
      "country": "United States",
      "postalCode": "95112",
      "state": "CA",
      "sourceURL": "http://jtownartwalk.com/wp-content/uploads/2016/06/jtown-artwalk-map-1.pdf"
    },
    "id": 720764163
  },
  {
    "type": "Feature",
    "geometry": { "type": "Point", "coordinates": [-122.13678, 37.47403] },
    "properties": {
      "title": "Celebrate East Palo Alto",
      "artist": "<a href='http://www.muralmusicarts.org/' target='_blank'>MMAP (Mural Music and Arts Project)</a> and <a href='http://www.sm-artgroup.com/' target='_blank'>Scape Martinez</a>",
      "description": "In 2014, <a href='http://www.muralmusicarts.org/' target='_blank'>MMAP (Mural Music and Arts Project)</a> and lead artist <a href='http://www.sm-artgroup.com/' target='_blank'>Scape Martinez</a> collaborated on this mural; Scape spray painted a vibrant mural along the wall of the Jack Farrell Park. Source: MMAP, http://www.muralmusicarts.org/",
      "address": "2509 Fordham St",
      "city": "East Palo Alto",
      "country": "United States",
      "postalCode": "94303",
      "state": "CA",
      "sourceURL": "http://www.muralmusicarts.org/"
    },
    "id": 3262433185
  },
  {
    "type": "Feature",
    "geometry": { "type": "Point", "coordinates": [-121.89527, 37.34837] },
    "properties": {
      "title": "Cholo Daruma",
      "artist": "<a href='https://www.instagram.com/orlycukui/' target='_blank'>Orly Locquiao</a>",
      "description": "This artbox was painted by <a href='https://www.instagram.com/orlycukui/' target='_blank'>Orly Locquiao</a>. It is located on the corner of 4th and Jackson, near Omogari restaurant. <br/> Source: Empire Seven Studios, Rasteroids, and Genevieve Santos. “Japantown Artwalk Map.“ Japantown Artwalk, 2017, http://jtownartwalk.com/wp-content/uploads/2016/06/jtown-artwalk-map-1.pdf ",
      "address": "",
      "city": "San José",
      "country": "United States",
      "postalCode": "95112",
      "state": "CA",
      "sourceURL": "http://jtownartwalk.com/wp-content/uploads/2016/06/jtown-artwalk-map-1.pdf"
    },
    "id": 3048127065
  },
  {
    "type": "Feature",
    "geometry": { "type": "Point", "coordinates": [-121.91112, 37.33107] },
    "properties": {
      "title": "Choose Your Own Adventure",
      "description": "This mural was painted by <a href='https://www.instagram.com/evilrobot42/' target='_blank'>Lacey Bryant</a> and <a href='https://www.instagram.com/ohmaigawd/' target='_blank'>Ben Henderson</a>. It was exhibited at the 2017 <a href='https://www.powwowsanjose.com/' target='_blank'>POW! WOW! San José</a> in collaboration with <a href='https://www.empiresevenstudios.com' target='_blank'>Empire Seven Studios</a>. View Ben's video of the completed <a href='https://www.instagram.com/p/BeB3oDxFeq6/?taken-by=ohmaigawd' target='_blank'>mural</a>. <br/> Source: POW! WOW! San José, 2017 Mural & Event Locations https://www.powwowsanjose.com/2017-locations/",
      "artist": "<a href='https://www.instagram.com/evilrobot42/' target='_blank'>Lacey Bryant</a> and <a href='https://www.instagram.com/ohmaigawd/' target='_blank'>Ben Henderson</a>",
      "address": "1068 The Alameda",
      "city": "San José",
      "country": "United States",
      "postalCode": "95126",
      "state": "CA",
      "sourceURL": "https://www.powwowsanjose.com/"
    },
    "id": 1110892769
  },
  {
    "type": "Feature",
    "geometry": { "type": "Point", "coordinates": [-121.87912, 37.32193] },
    "properties": {
      "title": "Clandestine Mural",
      "artist": "<a href='https://www.instagram.com/jimmypaints/' target='_blank'>Jim Fonseca</a> and <a href='https://www.instagram.com/itg3000/' target='_blank'>Ivan Gonzalez</a>",
      "description": "This mural was painted by <a href='https://www.instagram.com/jimmypaints/' target='_blank'>Jim Fonseca</a> and <a href='https://www.instagram.com/itg3000/' target='_blank'>Ivan Gonzalez</a>, and produced in collaboration with <a href='https://www.exhibitiondistrict.com/' target='_blank'>Exhibition District</a>. It is located at Clandestine Brewery. Source: Exhibition District, https://www.exhibitiondistrict.com/",
      "address": "980 S 1st Street Ste B",
      "city": "San José",
      "country": "United States",
      "postalCode": "95113",
      "state": "CA",
      "sourceURL": "https://www.exhibitiondistrict.com/"
    },
    "id": 622984454
  },
  {
    "type": "Feature",
    "geometry": { "type": "Point", "coordinates": [-121.86613, 37.33749] },
    "properties": {
      "title": "Coyote Creek Mural at Olinder Elementary School",
      "artist": "<a href='http://www.pauljgonzalezartstudios.com/' target='_blank'>Paul J. Gonzalez</a>",
      "description": "The mural is located at Selma Olinder Elementary School. Painted by Paul Gonzalez, the mural was produced in collaboration with Liz Neves, Paul Ledesma, Imelda Rodriguez, CommUniverCity San José and the Olinder Elementary School community. The mural features this message: 'Active and caring communities create healthy environments.' It was painted in 2015. <br/> Source: Paul J. Gonzalez Art Studios, http://www.pauljgonzalezartstudios.com/",
      "address": "890 E William St",
      "city": "San José",
      "country": "United States",
      "postalCode": "95116",
      "state": "CA",
      "sourceURL": "http://www.pauljgonzalezartstudios.com/"
    },
    "id": 1920218129
  },
  {
    "type": "Feature",
    "geometry": { "type": "Point", "coordinates": [-121.83337, 37.28407] },
    "properties": {
      "title": "Create",
      "artist": "Sam Rodriguez",
      "description": "Sam Rodriguez made this bench, with the word 'CREATE', which is located inside the Seven Trees Community Center.",
      "address": "3590 Cas Dr",
      "city": "San José",
      "country": "United States",
      "postalCode": "95111",
      "state": "CA",
      "sourceURL": "http://samrodriguezart.com/"
    },
    "id": 993528578
  },
  {
    "type": "Feature",
    "geometry": { "type": "Point", "coordinates": [-121.89126, 37.34773] },
    "properties": {
      "title": "Cyclorilla",
      "description": "Cyclorilla was painted by <a href='https://www.instagram.com/seanboyles38th/' target='_blank'>Sean Boyles</a>. This mural was exhibited at the 2017 <a href='https://www.powwowsanjose.com/' target='_blank'>POW! WOW! San José</a> in collaboration with <a href='https://www.empiresevenstudios.com' target='_blank'>Empire Seven Studios</a>. <br/> Source: Empire Seven Studios, Rasteroids, and Genevieve Santos. “Japantown Artwalk Map.“ Japantown Artwalk, 2017, http://jtownartwalk.com/wp-content/uploads/2016/06/jtown-artwalk-map-1.pdf",
      "artist": "<a href='https://www.instagram.com/seanboyles38th/' target='_blank'>Sean Boyles</a>",
      "address": "251 E Empire Street",
      "city": "San José",
      "country": "United States",
      "postalCode": "95112",
      "state": "CA",
      "sourceURL": "https://www.powwowsanjose.com/"
    },
    "id": 3919510121
  },
  {
    "type": "Feature",
    "geometry": { "type": "Point", "coordinates": [-121.8451, 37.34881] },
    "properties": {
      "title": "César Chávez Elementary School Mural",
      "artist": "<a href='http://www.pauljgonzalezartstudios.com/' target='_blank'>Paul J. Gonzalez</a>",
      "description": "In 2017, Paul J Gonzalez painted this mural at César Chávez Elementary School. View a <a href='https://www.facebook.com/photo.php?fbid=10155359412524833&set=a.10155359372279833.1073741848.558994832&type=3&theater' target='_blank'>photo of the mural</a>. <br/> Source: Paul J. Gonzalez Art Studios, http://www.pauljgonzalezartstudios.com/",
      "address": "2000 Kammerer Ave",
      "city": "San José",
      "country": "United States",
      "postalCode": "95116",
      "state": "CA",
      "sourceURL": "http://www.pauljgonzalezartstudios.com/"
    },
    "id": 1233136582
  },
  {
    "type": "Feature",
    "geometry": { "type": "Point", "coordinates": [-121.88126, 37.33583] },
    "properties": {
      "title": "César E. Chávez Monument: The Arch of Dignity, Equality, and Justice",
      "image": "img/CesarChavezMonument_by_JudithBaca_photoby_yanyinchoy-COLLAGE.jpg",
      "description": "This monument pays tribute to the legacy of César Chávez, Dolores Huerta, Mahatma Gandhi, and the UFW movement for dignity, equality and justice. The monument is located on El Paseo de César E. Chávez, by San José State University - Student Union. <br/>Images: Yan-Yin Choy.",
      "artist": "Judith F. Baca",
      "address": "1 Washington Sq.",
      "city": "San José",
      "country": "United States",
      "postalCode": "95192",
      "state": "CA"
    },
    "id": 3487921118
  },
  {
    "type": "Feature",
    "geometry": { "type": "Point", "coordinates": [-121.87767, 37.33338] },
    "properties": {
      "title": "Dolores Huerta Mural",
      "artist": "Tom Dyer",
      "description": "This mural is located near the back of the Associated Students César Chávez Community Action Center Garden; it's located on E San Salvador St between 8th and 9th Streets.",
      "address": "372 E San Salvador St.",
      "city": "San José",
      "country": "United States",
      "postalCode": "95112",
      "state": "CA"
    },
    "id": 482511752
  },
  {
    "type": "Feature",
    "geometry": { "type": "Point", "coordinates": [-121.85467, 37.35247] },
    "properties": {
      "title": "Doña Mayfair",
      "artist": "<a href='http://samrodriguezart.com/' target='_blank'>Sam Rodriguez</a>",
      "website": "http://samrodriguezart.com/",
      "address": "1700 Alum Rock Avenue",
      "city": "San José",
      "country": "United States",
      "crossStreet": "at Alum Rock Ave and King Rd",
      "postalCode": "95116",
      "state": "CA",
      "sourceURL": "http://samrodriguezart.com/"
    },
    "id": 2387300105
  },
  {
    "type": "Feature",
    "geometry": { "type": "Point", "coordinates": [-121.88748, 37.33225] },
    "properties": {
      "title": "E7S Wall Street Mural by the Federal Builing in San José",
      "artist": "<a href='http://www.bunniereiss.com/' target='_blank'>Bunnie Reiss</a>",
      "description": "<a href='http://www.bunniereiss.com/' target='_blank'>Bunnie Reiss</a> painted this brightly colored folk mural along the exterior wall of the the Robert F. Peckham United States Courthouse and Federal Building on S 1st Street. The mural was produced in collaboration with Empire Seven Studios. <br/><br/> <a href='http://www.bunniereiss.com/empire-7/' target='_blank'>Learn more</a>. Photo source: <a href='https://www.empiresevenstudios.com/' target='_blank'>Empire Seven Studios</a>.",
      "image": "https://static1.squarespace.com/static/5681ee28841abae3b7d8dec9/5681f5521c12101f97a4de89/5a53b8e8c83025de53beb868/1515436266158/IMG_E58101.jpg?format=750w",
      "address": "280 S 1st St",
      "city": "San José",
      "country": "United States",
      "postalCode": "95113",
      "state": "CA",
      "sourceURL": "https://www.empiresevenstudios.com/"
    },
    "id": 530593942
  },
  {
    "type": "Feature",
    "geometry": { "type": "Point", "coordinates": [-121.81454, 37.32341] },
    "properties": {
      "title": "Eastridge Mall Mural - Aaron De La Cruz",
      "artist": "<a href='http://www.aarondelacruz.com/' target='_blank'>Aaron De La Cruz</a>",
      "description": "This mural is part of a collection of murals at Eastridge Mall.  <a href='http://eastridgecenter.com/3905-2/' target='_blank'>Learn more</a>.",
      "website": "http://www.aarondelacruz.com/",
      "address": "2200 Eastridge Loop",
      "city": "San José",
      "country": "United States",
      "crossStreet": "at Eastridge Loop",
      "postalCode": "95122",
      "state": "CA",
      "sourceURL": "http://eastridgecenter.com/3905-2/"
    },
    "id": 76520329
  },
  {
    "type": "Feature",
    "geometry": { "type": "Point", "coordinates": [-121.81291, 37.32508] },
    "properties": {
      "title": "Eastridge Mall Mural - Brendan Monroe",
      "artist": "Brendan Monroe",
      "address": "2200 Eastridge Loop",
      "description": "This mural is part of a collection of murals at Eastridge Mall.  <a href='http://eastridgecenter.com/3905-2/' target='_blank'>Learn more</a>.",
      "city": "San José",
      "country": "United States",
      "crossStreet": "at Eastridge Loop",
      "postalCode": "95122",
      "state": "CA",
      "sourceURL": "http://eastridgecenter.com/3905-2/"
    },
    "id": 2574942721
  },
  {
    "type": "Feature",
    "geometry": { "type": "Point", "coordinates": [-121.81196, 37.32639] },
    "properties": {
      "title": "Eastridge Mall Mural - Cyrcle",
      "artist": "<a href='http://www.cyrcle.com/' target='_blank'>Cyrcle</a>",
      "website": "http://www.cyrcle.com/",
      "description": "This mural is part of a collection of murals at Eastridge Mall.  <a href='http://eastridgecenter.com/3905-2/' target='_blank'>Learn more</a>.",
      "address": "2200 Eastridge Loop",
      "city": "San José",
      "country": "United States",
      "crossStreet": "at Eastridge Loop",
      "postalCode": "95122",
      "state": "CA",
      "sourceURL": "http://eastridgecenter.com/3905-2/"
    },
    "id": 3475334186
  },
  {
    "type": "Feature",
    "geometry": { "type": "Point", "coordinates": [-121.81191, 37.32567] },
    "properties": {
      "title": "Eastridge Mall Mural - Lila Gemellos",
      "artist": "<a href='http://www.gemellosmurals.com/' target='_blank'>Lila Gemellos</a>",
      "website": "http://www.gemellosmurals.com/",
      "description": "This mural is part of a collection of murals at Eastridge Mall.  Source: Gemellos, Lila. “The Photo Wall(s) at Eastridge Mall.” Creative Force Lila Gemellos, 27 Mar. 2018,  http://www.gemellosmurals.com/portfolio/the-photo-walls-at-eastridge-mall/",
      "address": "2200 Eastridge Loop",
      "city": "San José",
      "country": "United States",
      "crossStreet": "at Eastridge Loop",
      "postalCode": "95122",
      "state": "CA",
      "sourceURL": "http://www.gemellosmurals.com/portfolio/interactive-mural-projects/"
    },
    "id": 1266609922
  },
  {
    "type": "Feature",
    "geometry": { "type": "Point", "coordinates": [-121.8916, 37.34778] },
    "properties": {
      "title": "Empty Vessel",
      "image": "https://static1.squarespace.com/static/5681ee28841abae3b7d8dec9/5681f5521c12101f97a4de89/5681fe85a2bab87f93eb8fe4/1451359879081/img_6047.jpg?format=750w",
      "artist": "Andrew Schoultz",
      "description": "This mural was painted by Andrew Schoultz, and produced in collaboration with Empire Seven Studios. The mural is located by the train tracks near the intersection of N 6th and E Empire St. <br/><br/><br/>Image Source: <a href='https://www.empiresevenstudios.com' target='_blank'>Empire Seven Studios</a>. <br/> Source: Empire Seven Studios, Rasteroids, and Genevieve Santos. “Japantown Artwalk Map.“ Japantown Artwalk, 2017, http://jtownartwalk.com/wp-content/uploads/2016/06/jtown-artwalk-map-1.pdf",
      "website": "http://www.andrewschoultz.com/",
      "address": "251 E Empire St.",
      "city": "San José",
      "country": "United States",
      "crossStreet": "at 6th St and E Empire St near the train tracks",
      "postalCode": "95112",
      "state": "CA",
      "sourceURL": "http://jtownartwalk.com/wp-content/uploads/2016/06/jtown-artwalk-map-1.pdf"
    },
    "id": 1601920014
  },
  {
    "type": "Feature",
    "geometry": { "type": "Point", "coordinates": [-121.88274, 37.32095] },
    "properties": {
      "title": "Enlightenment Mural at Washington Elementary School",
      "artist": "Carlos Rodriguez",
      "description": "This mural was painted by artist <a href='https://www.carlosrodriguezart.com/' target='_blank'>Carlos Rodriguez</a>, and produced in collaboration with Santa Clara University and Washington Elementary School. It is located at Washington Elementary School. View a <a href='https://www.instagram.com/p/BSIlGvDA3tF/?taken-by=carlosrmk' target='_blank'>picture of the mural.</a> Source: Carlos Rodriguez",
      "address": "100 Oak St",
      "city": "San José",
      "country": "United States",
      "postalCode": "95110",
      "state": "CA",
      "sourceURL": "https://www.carlosrodriguezart.com/"
    },
    "id": 2873476303
  },
  {
    "type": "Feature",
    "geometry": { "type": "Point", "coordinates": [-121.85486, 37.3524] },
    "properties": {
      "title": "Espiritu y Corazon",
      "artist": "Precita Eyes Muralists",
      "description": "This mural was painted around 2004. It is located at the Mexican Heritage Plaza. Source: Velasquez, Carlos. “POW! WOW! San Jose 2017 Mural Ride.“ Ride With GPS, 29, Oct. 2017, https://ridewithgps.com/routes/25823991",
      "address": "1700 Alum Rock Ave",
      "city": "San José",
      "country": "United States",
      "crossStreet": "at Alum Rock and King Rd",
      "postalCode": "95116",
      "state": "CA",
      "sourceURL": "https://ridewithgps.com/routes/25823991"
    },
    "id": 1472396145
  },
  {
    "type": "Feature",
    "geometry": { "type": "Point", "coordinates": [-121.89096, 37.34812] },
    "properties": {
      "title": "Forever Laughter",
      "description": "This mural is painted by <a href='https://www.instagram.com/longneck4life/' target='_blank'>Girafa</a>, and produced in collaboration with <a href='https://www.empiresevenstudios.com' target='_blank'>Empire Seven Studios</a>, POW!WOW! San José, and <a href='https://www.instagram.com/ungramr/' target='_blank'>Ungramr</a>. It was exhibited at the 2017 POW!WOW! San José festival. <br/> Source: POW! WOW! San José, 2017 Mural & Event Locations https://www.powwowsanjose.com/2017-locations/",
      "artist": "Girafa",
      "address": "525 N 7th St",
      "city": "San José",
      "country": "United States",
      "postalCode": "95112",
      "state": "CA",
      "sourceURL": "https://www.powwowsanjose.com/"
    },
    "id": 2281865439
  },
  {
    "type": "Feature",
    "geometry": { "type": "Point", "coordinates": [-121.89885, 37.34955] },
    "properties": {
      "title": "Forever Laughter",
      "description": "This mural is painted by Abel Gonzalez, and produced in collaboration with <a href='https://www.empiresevenstudios.com' target='_blank'>Empire Seven Studios</a>. <br/><br/> Source: <p>Empire Seven Studios, Rasteroids, and Genevieve Santos. “Japantown Artwalk Map.“ Japantown Artwalk, 2017, http://jtownartwalk.com/wp-content/uploads/2016/06/jtown-artwalk-map-1.pdf",
      "image": "https://static1.squarespace.com/static/5681ee28841abae3b7d8dec9/5681f5521c12101f97a4de89/568425b5cbced6a015741822/1455301637540/abel-gonzalez_0.jpg?format=750w",
      "artist": "Abel Gonzalez",
      "address": "52 E Taylor St",
      "city": "San José",
      "country": "United States",
      "postalCode": "95112",
      "state": "CA",
      "sourceURL": "http://jtownartwalk.com/wp-content/uploads/2016/06/jtown-artwalk-map-1.pdf"
    },
    "id": 3726201520
  },
  {
    "type": "Feature",
    "geometry": { "type": "Point", "coordinates": [-121.88656, 37.32986] },
    "properties": {
      "title": "Gemini Twins",
      "artist": "<a href='http://mikeborja.tumblr.com/' target='_blank'>Mike Borja</a>",
      "website": "http://mikeborja.tumblr.com/",
      "image": "img/GeminiTwins_mural_by_MikeBorja_photoby_YanYinChoy.jpg",
      "description": "This mural was painted by <a href='http://mikeborja.tumblr.com/' target='_blank'>Mike Borja</a>, on Aura Kitchen & Bar's exterior wall, located on San Salvador, between Market and S. 1st Street in downtown San José.<br/><br/>Image Source: Yan-Yin Choy",
      "address": "43 W San Salvador",
      "city": "San José",
      "country": "United States",
      "postalCode": "95113",
      "state": "CA",
      "sourceURL": "http://mikeborja.tumblr.com/"
    },
    "id": 3278579924
  },
  {
    "type": "Feature",
    "geometry": { "type": "Point", "coordinates": [-121.8896, 37.33614] },
    "properties": {
      "title": "Gold Hearted",
      "artist": "Jorge Camacho",
      "address": "7 Fountain Alley",
      "image": "img/GoldHearted_muralby_JorgeCamacho_photoby_YanYinChoy.jpg",
      "description": "This mural is located Fountain Alley; it was produced in collaboration with <a href='https://www.exhibitiondistrict.com/' target='_blank'>Exhibition District</a>. <br/><br/><br/>Image Source: Yan-Yin Choy. <br/> Source: Exhibition District, https://www.exhibitiondistrict.com/",
      "city": "San José",
      "country": "United States",
      "crossStreet": "At Fountain Alley between 1st and 2nd Street",
      "postalCode": "95113",
      "state": "CA",
      "sourceURL": "https://www.exhibitiondistrict.com/"
    },
    "id": 2698565839
  },
  {
    "type": "Feature",
    "geometry": { "type": "Point", "coordinates": [-121.89022, 37.33543] },
    "properties": {
      "title": "Good Karma Artisan Ales & Cafe Mural",
      "artist": "<a href='https://www.instagram.com/ohmaigawd/' target='_blank'>Ben Henderson</a>, <a href='https://www.instagram.com/evilrobot42/' target='_blank'>Lacey Bryant</a>, <a href='https://www.instagram.com/drewroulette/' target='_blank'>Drew Roulette</a>, and <a href='https://www.instagram.com/sir.beardo/' target='_blank'>Sir Beardo</a>",
      "description": "This mural was painted by <a href='https://www.instagram.com/ohmaigawd/' target='_blank'>Ben Henderson</a>, <a href='https://www.instagram.com/evilrobot42/' target='_blank'>Lacey Bryant</a>, <a href='https://www.instagram.com/drewroulette/' target='_blank'>Drew Roulette</a>, and <a href='https://www.instagram.com/sir.beardo/' target='_blank'>Sir Beardo</a>. It is located on the exterior wall of <a href='http://goodkarmasj.com/' target='_blank'>Good Karma Artisan Ales & Cafe</a>, a local vegan cafe with craft ales.",
      "address": "37 S 1st St",
      "city": "San José",
      "country": "United States",
      "postalCode": "95113",
      "state": "CA"
    },
    "id": 2443638516
  },
  {
    "type": "Feature",
    "geometry": { "type": "Point", "coordinates": [-121.88582, 37.33022] },
    "properties": {
      "title": "Guardian Tiger",
      "artist": "<a href='http://mikeborja.tumblr.com/' target='_blank'>Mike Borja</a>",
      "website": "http://mikeborja.tumblr.com/",
      "description": "This mural is the middle in a series of three murals on the exterior wall of The Studio gym, facing the E San Salvador St. This mural is painted by Mike Borja. <br/> Source: Lakey, Cherri. “Find Beauty in the Streets of San Jose This Summer.” KQED, KQED, 5 July 2016, http://www.kqed.org/arts/11741855/find-beauty-in-the-streets-of-san-jose-this-summer.",
      "address": "396 S 1st St.",
      "city": "San José",
      "country": "United States",
      "postalCode": "95113",
      "state": "CA",
      "sourceURL": "http://www.kqed.org/arts/11741855/find-beauty-in-the-streets-of-san-jose-this-summer"
    },
    "id": 31154388
  },
  {
    "type": "Feature",
    "geometry": { "type": "Point", "coordinates": [-121.90047, 37.3297] },
    "properties": {
      "title": "Gutter Paraidse",
      "website": "http://www.adelerenault.com/",
      "description": "This mural was painted by <a href='http://www.adelerenault.com/' target='_blank'>Adele Renault</a>, and exhibited at the 2017 <a href='https://www.powwowsanjose.com/' target='_blank'>POW! WOW! San José</a> in collaboration with <a href='https://www.empiresevenstudios.com' target='_blank'>Empire Seven Studios</a>. It is located on the exterior wall of Poor House Bistro, on the side facing San Fernando Street. <br/> Source: POW! WOW! San José, 2017 Mural & Event Locations https://www.powwowsanjose.com/2017-locations/",
      "artist": "<a href='http://www.adelerenault.com/' target='_blank'>Adele Renault</a>",
      "address": "87 S Autumn St",
      "city": "San José",
      "country": "United States",
      "postalCode": "95110",
      "state": "CA",
      "sourceURL": "https://www.powwowsanjose.com/"
    },
    "id": 263165624
  },
  {
    "type": "Feature",
    "geometry": { "type": "Point", "coordinates": [-121.89338, 37.33447] },
    "properties": {
      "title": "Harts Dog Park Mural",
      "image": "https://static1.squarespace.com/static/5681ee28841abae3b7d8dec9/5681f5521c12101f97a4de89/582cafaf20099ed10677b69f/1481233516902/Untitled.jpg",
      "artist": "<a href='https://www.instagram.com/roanvictor/' target='_blank'>Roan Victor</a>",
      "description": "Painted by <a href='https://www.instagram.com/roanvictor/' target='_blank'>Roan Victor</a>,this mural was produced in collaboration with <a href='https://www.empiresevenstudios.com' target='_blank'>Empire Seven Studios</a>. <br/><br/><br/>Image Source: <a href='https://www.empiresevenstudios.com' target='_blank'>Empire Seven Studios</a>",
      "website": "https://www.instagram.com/roanvictor/",
      "address": "194 W Santa Clara St.",
      "city": "San José",
      "country": "United States",
      "crossStreet": "at W Santa Clara St and Almaden Ave",
      "postalCode": "95113",
      "state": "CA",
      "sourceURL": "https://www.empiresevenstudios.com"
    },
    "id": 1406085611
  },
  {
    "type": "Feature",
    "geometry": { "type": "Point", "coordinates": [-121.82746, 37.36551] },
    "properties": {
      "title": "Heart of the Valley's Delight",
      "artist": "<a href='https://www.carlosrodriguezart.com/' target='_blank'>Carlos Rodriguez</a> and James Lick High School students",
      "description": "Students from James Lick High School came up with the ideas for the mural. The students and the community collaborated with artist <a href='https://www.carlosrodriguezart.com/' target='_blank'>Carlos Rodriguez</a> to produce the mural at the corner of Alum Rock and White Rd. To learn more, view the video from <a href='https://www.youtube.com/watch?v=vZIMbmhevBs&feature=share' target='_blank'>Alum Rock Village Action Committee</a>. The mural is located at the corner of Alum Rock Ave and S White Rd, on the exterior wall of El Rodeo Menswear store. Source: Carlos Rodriguez",
      "address": "3100 Alum Rock Ave",
      "city": "San José",
      "country": "United States",
      "postalCode": "95127",
      "state": "CA",
      "sourceURL": "https://www.carlosrodriguezart.com/"
    },
    "id": 4204073646
  },
  {
    "type": "Feature",
    "geometry": { "type": "Point", "coordinates": [-121.88981, 37.34841] },
    "properties": {
      "title": "Here & There",
      "image": "https://static1.squarespace.com/static/5681ee28841abae3b7d8dec9/5681f5521c12101f97a4de89/597287b3cf81e0735c416082/1500678068733/7.jpg",
      "description": "This mural was produced in collaboration with <a href='https://www.empiresevenstudios.com' target='_blank'>Empire Seven Studios</a>. <br/><br/><br/>Image Source:<a href='https://www.empiresevenstudios.com' target='_blank'>Empire Seven Studios</a>. <br/> Source: Empire Seven Studios, Rasteroids, and Genevieve Santos. “Japantown Artwalk Map.“ Japantown Artwalk, 2017, http://jtownartwalk.com/wp-content/uploads/2016/06/jtown-artwalk-map-1.pdf",
      "artist": "<a href='http://samrodriguezart.com/' target='_blank'>Sam Rodriguez</a>",
      "website": "http://samrodriguezart.com/",
      "address": "349 E Empire St.",
      "city": "San José",
      "country": "United States",
      "crossStreet": "at N 8th St and E Empire St.",
      "postalCode": "95112",
      "state": "CA",
      "sourceURL": "http://jtownartwalk.com/wp-content/uploads/2016/06/jtown-artwalk-map-1.pdf"
    },
    "id": 3277216326
  },
  {
    "type": "Feature",
    "geometry": { "type": "Point", "coordinates": [-121.91184, 37.32704] },
    "properties": {
      "title": "Here, Kitty!",
      "artist": "Catrina Sida",
      "description": "Small arch on the side of the house at 153 Race Street. Child standing on a box reaching up with a twig to coax down a kitten perched on the top of the window. Small dog watching from below. Art by Catrina Sida. Source: Loui Tucker,",
      "address": "153 Race Street",
      "city": "San José",
      "country": "United States",
      "postalCode": "95126",
      "state": "CA"
    },
    "id": 1058223227
  },
  {
    "type": "Feature",
    "geometry": { "type": "Point", "coordinates": [-121.88814, 37.33756] },
    "properties": {
      "title": "Homage",
      "description": "This mural is a tribute to John Carlos and Tommie Smith’s protest on Oct. 16, 1968 at the Olympics in Mexico City. United States track athletes and San José State University students Tommie Smith and John Carlos took a stand when they received their medals. They protested the unjust treatment of African American people in the United States. They took a stand against poverty and inequality. This mural was produced by <a href='http://galleryad.com/' target='_blank'>Anno Domini</a> and <a href='http://sjdowntown.com/' target='_blank'>San José Downtown Association</a> in 2005. <br/><br/>Image Source: Yan-Yin Choy. <br/> Source: Lakey, Cherri. “Find Beauty in the Streets of San Jose This Summer.” KQED, KQED, 5 July 2016, http://www.kqed.org/arts/11741855/find-beauty-in-the-streets-of-san-jose-this-summer.",
      "image": "img/Homage_by_ChrisDuncan_PaulUrich_photoby_yanyinchoy.jpg",
      "artist": "Chris Duncan and Paul Urich",
      "address": "135 E Santa Clara St.",
      "city": "San José",
      "country": "United States",
      "crossStreet": "at E Santa Clara St and N 4th St.",
      "postalCode": "95112",
      "state": "CA",
      "sourceURL": "http://www.kqed.org/arts/11741855/find-beauty-in-the-streets-of-san-jose-this-summer"
    },
    "id": 172096062
  },
  {
    "type": "Feature",
    "geometry": { "type": "Point", "coordinates": [-121.88342, 37.33934] },
    "properties": {
      "title": "Interview with an Icon",
      "artist": "<a href='http://quietgiantdesign.com/' target='_blank'>Ian Young</a>.",
      "description": "Ian Young painted this mural. It was produced by SJSU African American Task Force for Student Success and San José Downtown Foundation. <br/> Source: Lakey, Cherri. “Find Beauty in the Streets of San Jose This Summer.” KQED, KQED, 5 July 2016, http://www.kqed.org/arts/11741855/find-beauty-in-the-streets-of-san-jose-this-summer.",
      "website": "http://quietgiantdesign.com/",
      "address": "332 E. Santa Clara St.",
      "city": "San José",
      "country": "United States",
      "crossStreet": "E Santa Clara Street between S 7th and S 8th Street",
      "postalCode": "95113",
      "state": "CA",
      "sourceURL": "http://www.kqed.org/arts/11741855/find-beauty-in-the-streets-of-san-jose-this-summer"
    },
    "id": 1689385986
  },
  {
    "type": "Feature",
    "geometry": { "type": "Point", "coordinates": [-121.88657, 37.32101] },
    "properties": {
      "title": "Jaguar Warrior",
      "artist": "Carlos Rodriguez",
      "description": "This mural was painted by artist <a href='https://www.carlosrodriguezart.com/' target='_blank'>Carlos Rodriguez</a>. It is located on the side of Sidhu Market. This mural was sponsored by The Health Trust. Source: Carlos Rodriguez",
      "address": "801 Locust St",
      "city": "San José",
      "country": "United States",
      "postalCode": "95110",
      "state": "CA",
      "sourceURL": "https://www.carlosrodriguezart.com/"
    },
    "id": 2767163036
  },
  {
    "type": "Feature",
    "geometry": { "type": "Point", "coordinates": [-121.88659, 37.33234] },
    "properties": {
      "title": "Japanese American Internment Memorial",
      "artist": "Ruth Asawa",
      "description": "This memorial was made by Ruth Asawa. It is located at the the Federal Building, near the stairs facing 2nd Street",
      "address": "280 S 2nd St",
      "city": "San José",
      "country": "United States",
      "postalCode": "95113",
      "state": "CA"
    },
    "id": 364349687
  },
  {
    "type": "Feature",
    "geometry": { "type": "Point", "coordinates": [-121.83956, 37.32079] },
    "properties": {
      "title": "Jeanne R. Meadows Elementary School Murals",
      "artist": "Paul J Gonzalez",
      "description": "The murals are painted by <a href='http://www.pauljgonzalezartstudios.com/' target='_blank'>Paul J. Gonzalez</a> in 2011 and 2013. They are located at Jeanne R. Meadows Elementary. <br/> View <a href='https://www.facebook.com/photo.php?fbid=10155359404934833&set=a.10155359372279833.1073741848.558994832&type=3&theater'>images</a>. <br/> Source: Gonzalez, Paul J. Murals. Paul J. Gonzalez Art Studios, http://www.pauljgonzalezartstudios.com/murals.html",
      "address": "1250 Taper Ln",
      "city": "San José",
      "country": "United States",
      "postalCode": "95122",
      "state": "CA",
      "sourceURL": "http://www.pauljgonzalezartstudios.com/murals.html"
    },
    "id": 1286160178
  },
  {
    "type": "Feature",
    "geometry": { "type": "Point", "coordinates": [-121.89674, 37.35094] },
    "properties": {
      "title": "Kitsune",
      "artist": "Doryu and State of Grace",
      "description": "Kitsune was designed by Doryu and painted by State of Grace. This mural is located at Jack's Bar. <br/> Source: Empire Seven Studios, Rasteroids, and Genevieve Santos. “Japantown Artwalk Map.“ Japantown Artwalk, 2017, http://jtownartwalk.com/wp-content/uploads/2016/06/jtown-artwalk-map-1.pdf",
      "address": "167 E Taylor St.",
      "city": "San José",
      "country": "United States",
      "postalCode": "95112",
      "state": "CA",
      "sourceURL": "http://jtownartwalk.com/wp-content/uploads/2016/06/jtown-artwalk-map-1.pdf"
    },
    "id": 534987951
  },
  {
    "type": "Feature",
    "geometry": { "type": "Point", "coordinates": [-121.89577, 37.35107] },
    "properties": {
      "title": "Kokeshis de San Jo",
      "artist": "<a href='http://samrodriguezart.com/' target='_blank'>Sam Rodriguez</a>",
      "description": "This artbox was painted by <a href='http://samrodriguezart.com/' target='_blank'>Sam Rodriguez</a>. It is located on the corner of 5th and Taylor by Fuji Towers. <br/> Source: Empire Seven Studios, Rasteroids, and Genevieve Santos. “Japantown Artwalk Map.“ Japantown Artwalk, 2017, http://jtownartwalk.com/wp-content/uploads/2016/06/jtown-artwalk-map-1.pdf",
      "address": "200 E Taylor St",
      "city": "San José",
      "country": "United States",
      "postalCode": "95112",
      "state": "CA",
      "sourceURL": "http://jtownartwalk.com/wp-content/uploads/2016/06/jtown-artwalk-map-1.pdf"
    },
    "id": 38393353
  },
  {
    "type": "Feature",
    "geometry": { "type": "Point", "coordinates": [-121.88721, 37.34921] },
    "properties": {
      "title": "La Gran Cultura Resonance",
      "description": "The mural is located at the Guadalajara Restaurante, on the side facing North 10th Street. This mural was painted by Jesus Rodriguez, William Moran, Abel Gonzalez, John Barrick, Ivan Gonzalez, Emillo Gallegos and Tamiko Rast,and produced in collaboration with <a href='https://www.empiresevenstudios.com' target='_blank'>Empire Seven Studios</a>. This mural is located on the exterior of Guadalajara Market. <br/><br/>Image Source: <a href='https://www.empiresevenstudios.com' target='_blank'>Empire Seven Studios</a>. Source: Jackie Vasquez and Empire Seven Studios.",
      "image": "https://static1.squarespace.com/static/5681ee28841abae3b7d8dec9/5681f5521c12101f97a4de89/5684261acbced6a015741cbe/1451501083791/mural-for-web.jpg?format=1500w",
      "artist": "Jesus Rodriguez, William Moran, Abel Gonzalez, John Barrick, Ivan Gonzalez, Emillo Gallegos and Tamiko Rast",
      "address": "452 E Empire St",
      "city": "San José",
      "country": "United States",
      "postalCode": "95112",
      "state": "CA",
      "sourceURL": "https://www.empiresevenstudios.com"
    },
    "id": 4153187198
  },
  {
    "type": "Feature",
    "geometry": { "type": "Point", "coordinates": [-121.8932, 37.34007] },
    "properties": {
      "title": "Labor of Our Love",
      "image": "https://static.wixstatic.com/media/382b8e_9a625a744020419e8cc7e0562fae7ce3~mv2_d_5988_1926_s_2.jpg/v1/fill/w_1200,h_386,al_c,q_90,usm_0.66_1.00_0.01/382b8e_9a625a744020419e8cc7e0562fae7ce3~mv2_d_5988_1926_s_2.webp",
      "artist": "<a href='https://www.instagram.com/galenobackart/' target='_blank'>Galen Oback</a>",
      "description": "This mural was painted by <a href='https://www.instagram.com/galenobackart/' target='_blank'>Galen Oback</a>, and produced in collaboration with <a href='https://www.exhibitiondistrict.com/' target='_blank'>Exhibition District</a>.<br/><br/>Image Source: <a href='https://www.exhibitiondistrict.com/' target='_blank'>Exhibition District</a>.",
      "address": "260 N 1st St.",
      "website": "https://www.instagram.com/galenobackart/",
      "country": "United States",
      "city": "San José",
      "postalCode": "95113",
      "state": "CA",
      "sourceURL": "https://www.exhibitiondistrict.com/"
    },
    "id": 3009984957
  },
  {
    "type": "Feature",
    "geometry": { "type": "Point", "coordinates": [-121.90088, 37.30778] },
    "properties": {
      "title": "Life in Willow Glen",
      "artist": "<a href='http://www.gemellosmurals.com/' target='_blank'>Lila Gemellos</a>",
      "description": "Life in Willow Glen pays homage to the past and present heritage, memories and business culture. <a href='http://www.gemellosmurals.com/' target='_blank'>Lila Gemellos</a> painted the mural. The mural is located on the exterior wall of BevMo! on Lincoln Ave. It was produced with support from San José City Councilmember Pierluigi Oliverio (District 6), the Willow Glen Business Association and property owner Michael Mulcahy. <br/> Source: Gemellos, Lila. “Life in Willow Glen.” Creative Force Lila Gemellos, 22 Nov. 2016, http://www.gemellosmurals.com/portfolio/life-in-willow-glen/",
      "address": "1133 Lincoln Ave",
      "city": "San José",
      "country": "United States",
      "postalCode": "95125",
      "state": "CA",
      "sourceURL": "http://www.gemellosmurals.com/portfolio/"
    },
    "id": 76443136
  },
  {
    "type": "Feature",
    "geometry": { "type": "Point", "coordinates": [-121.89563, 37.34802] },
    "properties": {
      "title": "Little Moment",
      "artist": "<a href='https://www.nosego.com/' target='_blank'>NoseGo</a>",
      "image": "https://static1.squarespace.com/static/5681ee28841abae3b7d8dec9/5681f5521c12101f97a4de89/5689fdb10ab377ae44ef1402/1451883959062/Final+Nosego.jpg?format=750w",
      "description": "This mural was done by Yis 'Nosego' Goodwin, and produced in collaboration with <a href='https://www.empiresevenstudios.com' target='_blank'>Empire Seven Studios</a>. It was commissioned by Nichi Bei Bussan store, and it is located on the exterior wall of the store. <br/><br/><br/>Image Source: <a href='https://www.empiresevenstudios.com' target='_blank'>Empire Seven Studios</a>. <br/> Source: Empire Seven Studios, Rasteroids, and Genevieve Santos. “Japantown Artwalk Map.“ Japantown Artwalk, 2017, http://jtownartwalk.com/wp-content/uploads/2016/06/jtown-artwalk-map-1.pdf ",
      "website": "https://www.nosego.com/",
      "address": "140 Jackson St.",
      "city": "San José",
      "country": "United States",
      "crossStreet": "at Jackson St between N 3rd St and N 4th St.",
      "postalCode": "95112",
      "state": "CA",
      "sourceURL": "http://jtownartwalk.com/wp-content/uploads/2016/06/jtown-artwalk-map-1.pdf"
    },
    "id": 1763010941
  },
  {
    "type": "Feature",
    "geometry": { "type": "Point", "coordinates": [-121.88594, 37.33174] },
    "properties": {
      "title": "Looking Back",
      "description": "This mural is painted by Jamie Friedman and Notre Dame High School students. You can find this mural at the corner of S 2nd St and San Carlos in downtown San José. <br/><br/> Source: Lakey, Cherri. “Find Beauty in the Streets of San Jose This Summer.” KQED, KQED, 5 July 2016, http://www.kqed.org/arts/11741855/find-beauty-in-the-streets-of-san-jose-this-summer.",
      "artist": "Jamie Friedman and Notre Dame High School students",
      "address": "300 S 2nd St",
      "city": "San José",
      "country": "United States",
      "postalCode": "95113",
      "state": "CA",
      "sourceURL": "http://www.kqed.org/arts/11741855/find-beauty-in-the-streets-of-san-jose-this-summer"
    },
    "id": 2512569005
  },
  {
    "type": "Feature",
    "geometry": { "type": "Point", "coordinates": [-121.92268, 37.29972] },
    "properties": {
      "title": "Los Gatos Creek Trail at Leigh Ave",
      "artist": "<a href='http://www.pauljgonzalezartstudios.com/' target='_blank'>Paul J. Gonzalez</a> and South Bay Clean Creeks Coalition",
      "description": "The mural is located at Leigh Ave, underneath the bridge, on the Los Gatos Creek Trail. The mural was painted by Paul J Gonzalez and South Bay Clean Creeks Coalition volunteers in August 2017. <br/> Source: Paul J. Gonzalez Art Studios, http://www.pauljgonzalezartstudios.com/",
      "address": "Los Gatos Creek Trail, underneath Leigh Avenue bridge",
      "city": "San José",
      "country": "United States",
      "postalCode": "95126",
      "state": "CA",
      "sourceURL": "http://www.pauljgonzalezartstudios.com/"
    },
    "id": 2607801062
  },
  {
    "type": "Feature",
    "geometry": { "type": "Point", "coordinates": [-121.87217, 37.35135] },
    "properties": {
      "title": "Love Mother Earth",
      "artist": "Carlos Rodriguez",
      "description": "This mural was painted by artist <a href='https://www.carlosrodriguezart.com/' target='_blank'>Carlos Rodriguez</a>. Sunrise Middle School sixth and seventh grade students collaborated to design and implement the mural with Carlos in June 2017. View a <a href='https://www.instagram.com/p/BVDNwNlAseF/?taken-by=carlosrmk' target='_blank'>picture of the mural</a>. Source: Carlos Rodriguez",
      "address": "1149 E Julian St",
      "city": "San José",
      "country": "United States",
      "postalCode": "95116",
      "state": "CA",
      "sourceURL": "https://www.carlosrodriguezart.com/"
    },
    "id": 1726768279
  },
  {
    "type": "Feature",
    "geometry": { "type": "Point", "coordinates": [-121.85796, 37.31823] },
    "properties": {
      "title": "Mariscos San Juan Mural",
      "artist": "<a href='https://www.instagram.com/fco1980/' target='_blank'>Francisco Ramirez</a>",
      "description": "Mural of a mermaid, octopus, sharks, turtles and sea life along the wall of the parking lot of the  Mariscos San Juan restaurant. Source: Francisco Ramirez.",
      "address": "1718 Senter Rd",
      "city": "San José",
      "country": "United States",
      "postalCode": "95112",
      "state": "CA",
      "sourceURL": "https://www.instagram.com/fco1980/"
    },
    "id": 732084405
  },
  {
    "type": "Feature",
    "geometry": { "type": "Point", "coordinates": [-121.99574, 37.26248] },
    "properties": {
      "title": "Marshall Lane Elementary School",
      "artist": "<a href='http://www.pauljgonzalezartstudios.com/' target='_blank'>Paul J. Gonzalez</a>",
      "description": "In June 2017, Paul J Gonzalez painted this mural, which highlights the water cycle, at Marshall Lane Elementary School. View a <a href='https://www.instagram.com/p/BVf7Hu6jA0C/?taken-by=pauljgonzalezartist' target='_blank'>photo of the mural</a>. <br/> Source: Paul J. Gonzalez Art Studios, http://www.pauljgonzalezartstudios.com/",
      "address": "14114 Marilyn Lane",
      "city": "Saratoga",
      "country": "United States",
      "postalCode": "95070",
      "state": "CA",
      "sourceURL": "http://www.pauljgonzalezartstudios.com/"
    },
    "id": 3021090118
  },
  {
    "type": "Feature",
    "geometry": { "type": "Point", "coordinates": [-121.86209, 37.33759] },
    "properties": {
      "title": "McKinley Elementary School Community Garden Mural",
      "artist": "<a href='http://mikeborja.tumblr.com/' target='_blank'>Mike Borja</a> and <a href='https://www.instagram.com/upbeat111/' target='_blank'>Freddie Vega</a>",
      "description": "This mural was spearheaded by <a href='http://mikeborja.tumblr.com/' target='_blank'>Mike Borja</a>. <a href='https://www.instagram.com/upbeat111/' target='_blank'>Freddie Vega</a> assisted with the painting. In February 2014, Heart of Chaos produced this mural in collaboration with McKinley Elementary School, Veggielution, Living Better Lives and the local community. Source: Heart of Chaos, 'McKinley Elementary School Community Mural Garden'. 2 Feb, 2014, https://heartofchaosblog.wordpress.com/2014/02/02/mckinley-elementary-school-community-mural-garden/",
      "address": "651 Macredes Ave",
      "city": "San José",
      "country": "United States",
      "postalCode": "95116",
      "state": "CA"
    },
    "id": 4133217735
  },
  {
    "type": "Feature",
    "geometry": { "type": "Point", "coordinates": [-121.86185, 37.33739] },
    "properties": {
      "title": "McKinley School Welcomes You!",
      "artist": "<a href='http://www.pauljgonzalezartstudios.com/' target='_blank'>Paul J. Gonzalez</a>",
      "description": "In 2005, Paul J Gonzalez painted this mural at McKinley Elementary School. View a <a href='https://www.facebook.com/photo.php?fbid=10155359372684833&set=a.10155359372279833.1073741848.558994832&type=3&theater' target='_blank'>photo of the mural</a>. <br/> Source: Paul J. Gonzalez Art Studios, http://www.pauljgonzalezartstudios.com/",
      "address": "651 Macredes Avenue",
      "city": "San José",
      "country": "United States",
      "postalCode": "95116",
      "state": "CA",
      "sourceURL": "http://www.pauljgonzalezartstudios.com/"
    },
    "id": 688518587
  },
  {
    "type": "Feature",
    "geometry": { "type": "Point", "coordinates": [-121.80164, 37.30662] },
    "properties": {
      "title": "Montgomery Elementary School Mural",
      "artist": "<a href='http://www.gemellosmurals.com/' target='_blank'>Lila Gemellos</a>",
      "description": " In 2015, <a href='http://www.gemellosmurals.com/' target='_blank'>Lila Gemellos</a> painted a mural highlighting the history of flight at John J Montgomery Elementary School. <br/><br/> Source: Gemellos, Lila. “Interactive Mural Projects” Creative Force Lila Gemellos, 28 Mar. 2018, http://www.gemellosmurals.com/portfolio/interactive-mural-projects/",
      "address": "2010 Daniel Maloney Dr",
      "city": "San José",
      "country": "United States",
      "postalCode": "95121",
      "state": "CA",
      "sourceURL": "http://www.gemellosmurals.com/portfolio/"
    },
    "id": 1243607292
  },
  {
    "type": "Feature",
    "geometry": { "type": "Point", "coordinates": [-121.65191, 37.12792] },
    "properties": {
      "title": "Morgan Hill Mural",
      "artist": "<a href='http://www.gemellosmurals.com/' target='_blank'>Lila Gemellos</a>",
      "description": "<a href='http://www.gemellosmurals.com/' target='_blank'>Lila Gemellos</a> painted this mural on the exterior wall of the building across from the 4th Street Parking Garage, near Hungtington Station Bar & Grille. The mural highlights the culture, history and heritage of Morgan Hill. This mural was supported by KRP Architects, Imwalle Properties and the City of Morgan Hill. <br/><br/>Source: Gemellos, Lila. “Morgan Hill Mural.” Creative Force Lila Gemellos, 26 Mar. 2018, www.gemellosmurals.com/portfolio/morgan-hill-mural/.",
      "address": "17280 Monterey Rd",
      "city": "Morgan Hill",
      "country": "United States",
      "postalCode": "95037",
      "state": "CA",
      "sourceURL": "http://www.gemellosmurals.com/portfolio/"
    },
    "id": 2446573105
  },
  {
    "type": "Feature",
    "geometry": { "type": "Point", "coordinates": [-121.88468, 37.329] },
    "properties": {
      "title": "Mural - The Stage",
      "description": "This mural was painted by <a href='https://www.instagram.com/travmsk/' target='_blank'>TRAVMSK</a> and exhibited at 2017 <a href='https://www.powwowsanjose.com/' target='_blank'>POW! WOW! San José</a> in collaboration with <a href='https://www.empiresevenstudios.com' target='_blank'>Empire Seven Studios</a>. The mural is locatead on the exterior back wall of the San José Stage Company. <br/> Source: POW!WOW! San José, https://www.powwowsanjose.com/2017-locations/",
      "artist": "<a href='https://www.instagram.com/travmsk/' target='_blank'>TRAVMSK</a>",
      "address": "490 S 1st St",
      "city": "San José",
      "country": "United States",
      "postalCode": "95113",
      "state": "CA",
      "sourceURL": "https://www.powwowsanjose.com/"
    },
    "id": 1492392889
  },
  {
    "type": "Feature",
    "geometry": { "type": "Point", "coordinates": [-121.98742, 37.358] },
    "properties": {
      "title": "Mural at Briarwood Elementary School",
      "artist": "<a href='http://www.pauljgonzalezartstudios.com/' target='_blank'>Paul J. Gonzalez</a>",
      "description": "The mural depicts a panda eating bamboo, a butterfly, a dragonfly and a ladybug. Paul J Gonzalez painted this mural at Briarwood Elementary School. View a <a href='https://www.instagram.com/p/Be3hUs0H-4a/?taken-by=pauljgonzalezartist' target='_blank'>photo of the mural.</a> <br/> Source: Paul J. Gonzalez Art Studios, http://www.pauljgonzalezartstudios.com/",
      "address": "1930 Townsend Ave",
      "city": "Santa Clara",
      "country": "United States",
      "postalCode": "95051",
      "state": "CA",
      "sourceURL": "http://www.pauljgonzalezartstudios.com/"
    },
    "id": 547416749
  },
  {
    "type": "Feature",
    "geometry": { "type": "Point", "coordinates": [-121.9082, 37.33135] },
    "properties": {
      "title": "Mural at Crema Coffee - part of the Rolling Your Way Bike mural series On The Alameda",
      "description": "The mural is part of the #RollingYourWay bike mural series #OnTheAlameda, painted by <a href='https://www.instagram.com/nandoid2485/' target='_blank'>@Nandoid2485</a>, and produced in collaboration with the <a href='https://www.exhibitiondistrict.com/' target='_blank'>Exhibition District</a> and Alameda Business Association, was painted in collaboration with dozens of volunteers. It exhibited August 2016. View a photo <a href='https://www.instagram.com/p/BH7elF0gOpF/?taken-by=the_exd' target='_blank'>of the mural</a>",
      "artist": "<a href='https://www.instagram.com/nandoid2485/' target='_blank'>@Nandoid2485</a>",
      "address": "950 The Alameda",
      "city": "San José",
      "country": "United States",
      "postalCode": "95126",
      "state": "CA",
      "sourceURL": "https://www.exhibitiondistrict.com/"
    },
    "id": 1492726005
  },
  {
    "type": "Feature",
    "geometry": { "type": "Point", "coordinates": [-121.87245, 37.31647] },
    "properties": {
      "title": "Mural at DCP El Camino Middle School",
      "artist": "Carlos Rodriguez",
      "description": "This mural was painted by artist <a href='https://www.carlosrodriguezart.com/' target='_blank'>Carlos Rodriguez</a>; it is located at DCP El Camino Middle School. Source: Carlos Rodriguez",
      "address": "1402 Monterey Hwy",
      "city": "San José",
      "country": "United States",
      "postalCode": "95110",
      "state": "CA",
      "sourceURL": "https://www.carlosrodriguezart.com/"
    },
    "id": 904698360
  },
  {
    "type": "Feature",
    "geometry": { "type": "Point", "coordinates": [-121.78678, 37.31922] },
    "properties": {
      "title": "Mural at Millbrook Elementary School",
      "artist": "<a href='https://www.instagram.com/arte.machuca33/' target='_blank'>Miguel Machuca</a> and DDEF Studio",
      "description": "40' by 13' mural at Millbrook Elementary School by Miguel Machuca and <a href='https://instagram.com/ddefstudio/' target='_blank'>DDEF Studio</a>. Sponsored by Millbrook ELementary School Student Council. Source: DDEF Studio",
      "address": "3200 Millbrook Dr",
      "city": "San José",
      "country": "United States",
      "postalCode": "95148",
      "state": "CA"
    },
    "id": 463137397
  },
  {
    "type": "Feature",
    "geometry": { "type": "Point", "coordinates": [-122.0076, 37.34834] },
    "properties": {
      "title": "Mural at Peterson Middle School",
      "artist": "<a href='http://www.pauljgonzalezartstudios.com/' target='_blank'>Paul J. Gonzalez</a>",
      "description": "The mural depicts ASB student leaders, promiting a safe, bully-free, drug-free culture that aspires to uphold these values: confidence, inclusion, spirit, service, diversity, passion, advocate, dedication, and community. Paul J Gonzalez painted this mural at Peterson Middle School. View a <a href='https://www.instagram.com/p/BVf-jiVDOQ8/?taken-by=pauljgonzalezartist' target='_blank'>photo of the mural.</a> <br/> Source: Paul J. Gonzalez Art Studios, http://www.pauljgonzalezartstudios.com/",
      "address": "1380 Rosalia Ave",
      "city": "Sunnyvale",
      "country": "United States",
      "postalCode": "94087",
      "state": "CA",
      "sourceURL": "http://www.pauljgonzalezartstudios.com/"
    },
    "id": 4094086566
  },
  {
    "type": "Feature",
    "geometry": { "type": "Point", "coordinates": [-121.86943, 37.27053] },
    "properties": {
      "title": "Mural at Terrell Elementary - honoring Randee Sparrer",
      "artist": "<a href='http://www.pauljgonzalezartstudios.com/' target='_blank'>Paul J. Gonzalez</a>, Monika Rose and Chris Carrillo",
      "description": "A previous mural was vandalized; the mural design concept was updated, with a focus on honoring an incredible teacher who had passed away, Randee Sparrer, who loved to read to the students. The mural shows Randee Sparrer reading two stories, 'Cricket in Times Square' and 'The Swan and The Trumpet.' Paul J Gonzalez painted this mural, with design help from Monika Rose and painting in collaboration with Chris Carrillo.  It was painted in March 2018. View a <a href='https://www.instagram.com/p/BgUbDKlnhrU/?taken-by=pauljgonzalezartist' target='_blank'>photo of the mural.</a> <br/> Source: Paul J. Gonzalez Art Studios, http://www.pauljgonzalezartstudios.com/",
      "address": "3925 Pearl Avenue",
      "city": "San José",
      "country": "United States",
      "postalCode": "95136",
      "state": "CA",
      "sourceURL": "http://www.pauljgonzalezartstudios.com/"
    },
    "id": 4075490405
  },
  {
    "type": "Feature",
    "geometry": { "type": "Point", "coordinates": [-121.83723, 37.34343] },
    "properties": {
      "title": "Mural de la Raza",
      "artist": "Frank Torres",
      "description": "Source: Velasquez, Carlos. “POW! WOW! San Jose 2017 Mural Ride.“ Ride With GPS, 29, Oct. 2017, https://ridewithgps.com/routes/25823991",
      "address": "2048 Story Road",
      "city": "San José",
      "country": "United States",
      "crossStreet": "on Story Rd btwn Hopkins Dr and Karl St.",
      "postalCode": "95122",
      "state": "CA",
      "sourceURL": "https://ridewithgps.com/routes/25823991"
    },
    "id": 143532097
  },
  {
    "type": "Feature",
    "geometry": { "type": "Point", "coordinates": [-121.84456, 37.35083] },
    "properties": {
      "title": "Murals at the Mayfair Community Center",
      "description": "Mayfair Community Center and Skate Park murals by various local artists, including Tomas Wisper Talamentes. Source: Velasquez, Carlos. “Community Mural Bike Ride, 3/4 - San Jose.“ Ride With GPS, 3, March. 2017, https://ridewithgps.com/routes/18919994",
      "artist": "Various Artists",
      "address": "2031 Kammerer Ave",
      "city": "San José",
      "country": "United States",
      "postalCode": "95116",
      "state": "CA"
    },
    "id": 2740731488
  },
  {
    "type": "Feature",
    "geometry": { "type": "Point", "coordinates": [-121.86822, 37.34644] },
    "properties": {
      "title": "Murals on Columns inside East San José Carnegie Branch Library",
      "artist": "<a href='http://www.pauljgonzalezartstudios.com/' target='_blank'>Paul J. Gonzalez</a>",
      "description": "In 1997, Paul J Gonalzez painted murals on columns inside the East San José Carnegie Branch Library. View a <a href='https://www.facebook.com/photo.php?fbid=10155359372619833&set=a.10155359372279833.1073741848.558994832&type=3&theater' target='_blank'>photo of the mural.</a> <br/> Source: Paul J. Gonzalez Art Studios, http://www.pauljgonzalezartstudios.com/",
      "address": "1102 E Santa Clara St",
      "city": "San José",
      "country": "United States",
      "postalCode": "95116",
      "state": "CA",
      "sourceURL": "http://www.pauljgonzalezartstudios.com/"
    },
    "id": 4211585420
  },
  {
    "type": "Feature",
    "geometry": { "type": "Point", "coordinates": [-121.97798, 37.30554] },
    "properties": {
      "title": "Nothing Is Too Good for the Working Class",
      "artist": "Carlos Rodriguez",
      "description": "This mural was painted by artist <a href='https://www.carlosrodriguezart.com/' target='_blank'>Carlos Rodriguez</a>. The murals are located at the Las Palmas Supermarket. This mural was sponsored by The Health Trust. Source: Carlos Rodriguez",
      "address": "1080 Saratoga Ave #15",
      "city": "San José",
      "country": "United States",
      "postalCode": "95129",
      "state": "CA",
      "sourceURL": "https://www.carlosrodriguezart.com/"
    },
    "id": 23925665
  },
  {
    "type": "Feature",
    "geometry": { "type": "Point", "coordinates": [-121.88047, 37.32275] },
    "properties": {
      "title": "Nunca eres lo suficientemente fuerte para no necesitar ayuda (You are never strong enough where you don’t need help) -- César Chávez",
      "image": "img/CesarChavezQuoteMural_TomasTalamantes_photoby_yanyinchoy.jpg",
      "artist": "<a href='https://www.facebook.com/wisper.t.talamantes' target='_blank'>Tomas Talamantes</a>",
      "description": "Nunca eres lo suficientemente fuerte para no necesitar ayuda (You are never strong enough where you don’t need help) -- César Chávez. <br/><br/>Painted by <a href='https://www.facebook.com/wisper.t.talamantes' target='_blank'>Tomas Talamantes</a>. <br/><br/>Image Source: Yan-Yin Choy. <br/> Source: Lakey, Cherri. “Find Beauty in the Streets of San Jose This Summer.” KQED, KQED, 5 July 2016, http://www.kqed.org/arts/11741855/find-beauty-in-the-streets-of-san-jose-this-summer ",
      "website": "https://www.facebook.com/wisper.t.talamantes",
      "address": "899 S 1st St.",
      "city": "San José",
      "country": "United States",
      "postalCode": "95113",
      "state": "CA",
      "sourceURL": "http://www.kqed.org/arts/11741855/find-beauty-in-the-streets-of-san-jose-this-summer"
    },
    "id": 547158105
  },
  {
    "type": "Feature",
    "geometry": { "type": "Point", "coordinates": [-121.82005, 37.25446] },
    "properties": {
      "title": "Oak Grove High School Eagle Mural",
      "artist": "<a href='http://www.pauljgonzalezartstudios.com/' target='_blank'>Paul J. Gonzalez</a>",
      "description": "In February 2017, Paul J Gonzalez painted a mural of a large eagle at Oak Grove High School. View a <a href='https://www.instagram.com/p/BQlt8OpDO0x/?taken-by=pauljgonzalezartist' target='_blank'>photo of the mural</a>. <br/> Source: Paul J. Gonzalez Art Studios, http://www.pauljgonzalezartstudios.com/",
      "address": "285 Blossom Hill Rd",
      "city": "San José",
      "country": "United States",
      "postalCode": "95123",
      "state": "CA",
      "sourceURL": "http://www.pauljgonzalezartstudios.com/"
    },
    "id": 4076238048
  },
  {
    "type": "Feature",
    "geometry": { "type": "Point", "coordinates": [-121.81377, 37.34207] },
    "properties": {
      "title": "Ocala Middle School Mural",
      "artist": "<a href='http://www.pauljgonzalezartstudios.com/' target='_blank'>Paul J. Gonzalez</a>",
      "description": "In May 2016, Paul J Gonzalez painted a mural of a cougar at the entrance of Ocala Middle School. View a <a href='https://www.instagram.com/p/BFfVfjRIhZY/?taken-by=pauljgonzalezartist' target='_blank'>photo of the mural</a>. <br/> Source: Paul J. Gonzalez Art Studios, http://www.pauljgonzalezartstudios.com/",
      "address": "2800 Ocala Ave",
      "city": "San José",
      "country": "United States",
      "postalCode": "95148",
      "state": "CA",
      "sourceURL": "http://www.pauljgonzalezartstudios.com/"
    },
    "id": 2825502152
  },
  {
    "type": "Feature",
    "geometry": { "type": "Point", "coordinates": [-121.89096, 37.3476] },
    "properties": {
      "title": "Old SJ",
      "image": "https://static1.squarespace.com/static/5681ee28841abae3b7d8dec9/5681f5521c12101f97a4de89/5684269ba128e6cd9b4cd03e/1451501214715/empirestreet.jpg",
      "artist": "<a href='http://samrodriguezart.com/' target='_blank'>Sam Rodriguez</a>",
      "website": "http://samrodriguezart.com/",
      "description": "This mural painted by <a href='http://samrodriguezart.com/' target='_blank'>Sam Rodriguez</a>, and produced in collaboration with <a href='https://www.empiresevenstudios.com' target='_blank'>Empire Seven Studios</a>. <br/><br/>Image Source: Empire Seven Studios. <br/> Source: Empire Seven Studios, Rasteroids, and Genevieve Santos. “Japantown Artwalk Map.“ Japantown Artwalk, 2017, http://jtownartwalk.com/wp-content/uploads/2016/06/jtown-artwalk-map-1.pdf",
      "address": "251 E Empire St.",
      "city": "San José",
      "country": "United States",
      "crossStreet": "at N 7th St and E Empire St.",
      "postalCode": "95112",
      "state": "CA",
      "sourceURL": "http://jtownartwalk.com/wp-content/uploads/2016/06/jtown-artwalk-map-1.pdf"
    },
    "id": 1622969481
  },
  {
    "type": "Feature",
    "geometry": { "type": "Point", "coordinates": [-121.88261, 37.33537] },
    "properties": {
      "title": "Olympic Black Power Statue - Tommie Smith & John Carlos",
      "image": "img/TommieSmithJohnCarlosStatues_photoby_YanYinChoy.jpg",
      "artist": "<a href='https://www.facebook.com/pages/Rigo-23/138554102829939' target='_blank'>Rigo 23</a>",
      "website": "https://www.facebook.com/pages/Rigo-23/138554102829939",
      "description": "On October 16, 1968 at the Olympics in Mexico City, United States track athletes and San José State University students Tommie Smith and John Carlos took a stand when they received their medals. They protested the unjust treatment of African American people in the United States. They took a stand against poverty and inequality. <br/><br/>Image Source: Yan-Yin Choy.",
      "address": "1 Washingtown Square",
      "city": "San José",
      "country": "United States",
      "postalCode": "95192",
      "state": "CA"
    },
    "id": 2886370059
  },
  {
    "type": "Feature",
    "geometry": { "type": "Point", "coordinates": [-121.88953, 37.33469] },
    "properties": {
      "title": "Panda Cafe and Bakery",
      "artist": "Phuong-Mai Bui-Quang",
      "address": "S 1st St between San Fernando and Post St",
      "city": "San José",
      "country": "United States",
      "postalCode": "95113",
      "state": "CA"
    },
    "id": 544376588
  },
  {
    "type": "Feature",
    "geometry": { "type": "Point", "coordinates": [-121.92456, 37.33404] },
    "properties": {
      "title": "Park Station Hashery Mural",
      "description": "This mural was painted by <a href='https://www.instagram.com/ohmaigawd/' target='_blank'>Ben Henderson</a> and <a href='https://www.instagram.com/evilrobot42/' target='_blank'>Lacey Bryant</a>. It was commissioned by <a href='http://www.parkstationhashery.com/' target='_blank'>Park Station Hashery.</a> View a photo of the <a href='https://www.instagram.com/p/BJCQ8WUBjrV/?taken-by=ohmaigawd' target='_blank'>mural</a>. <br/> Source: Ben Henderson, https://www.instagram.com/ohmaigawd/",
      "artist": "<a href='https://www.instagram.com/evilrobot42/' target='_blank'>Lacey Bryant</a> and <a href='https://www.instagram.com/ohmaigawd/' target='_blank'>Ben Henderson</a>",
      "address": "1701 Park Ave",
      "city": "San José",
      "country": "United States",
      "postalCode": "95126",
      "state": "CA",
      "sourceURL": "https://www.instagram.com/ohmaigawd/"
    },
    "id": 609391426
  },
  {
    "type": "Feature",
    "geometry": { "type": "Point", "coordinates": [-121.88526, 37.32886] },
    "properties": {
      "title": "Peeps and Pups",
      "description": "Fernando 'FORCE129' Amaro Jr painted this mural on S 1st St. <br/> Source: Lakey, Cherri. “Find Beauty in the Streets of San Jose This Summer.” KQED, KQED, 5 July 2016, http://www.kqed.org/arts/11741855/find-beauty-in-the-streets-of-san-jose-this-summer",
      "artist": "<a href='http://www.force129.com/' target='_blank'>Force129</a>",
      "website": "http://www.force129.com/",
      "address": "493 S 1st Street",
      "city": "San José",
      "country": "United States",
      "postalCode": "95113",
      "state": "CA",
      "sourceURL": "http://www.kqed.org/arts/11741855/find-beauty-in-the-streets-of-san-jose-this-summer"
    },
    "id": 2540279112
  },
  {
    "type": "Feature",
    "geometry": { "type": "Point", "coordinates": [-121.89809, 37.32581] },
    "properties": {
      "title": "People Ready",
      "artist": "<a href='https://www.instagram.com/jeffmeadows_arts/' target='_blank'>Jeff Meadows</a>",
      "description": "This mural was painted by <a href='https://www.instagram.com/jeffmeadows_arts/' target='_blank'>Jeff Meadows</a>, and exhibited at 2017 <a href='https://www.powwowsanjose.com/' target='_blank'>POW! WOW! San José</a> in collaboration with <a href='https://www.empiresevenstudios.com' target='_blank'>Empire Seven Studios</a>. <br/> Source: POW! WOW! San José, 2017 Mural & Event Locations https://www.powwowsanjose.com/2017-locations/",
      "address": "486 W San Carlos St",
      "city": "San José",
      "country": "United States",
      "postalCode": "95110",
      "state": "CA",
      "sourceURL": "https://www.powwowsanjose.com/"
    },
    "id": 2455191492
  },
  {
    "type": "Feature",
    "geometry": { "type": "Point", "coordinates": [-121.88986, 37.33567] },
    "properties": {
      "title": "Phylum of the Free",
      "artist": "<a href='http://www.andradehemming.com/' target='_blank'>Jeffrey Andrade Hemming</a>",
      "description": "This mural was produced by <a href='http://www.phantomgalleries.com/' target='_blank'>Phantom Galleries</a> and <a href='http://sjdowntown.com/' target='_blank'>San José Downtown Association in 2015.</a>. <br/> Source: Lakey, Cherri. “Find Beauty in the Streets of San Jose This Summer.” KQED, KQED, 5 July 2016, http://www.kqed.org/arts/11741855/find-beauty-in-the-streets-of-san-jose-this-summer.",
      "website": "http://www.andradehemming.com/",
      "address": "30 S 1st St.",
      "city": "San José",
      "country": "United States",
      "crossStreet": "at Fountain Alley and S 1st St.",
      "postalCode": "95113",
      "state": "CA",
      "sourceURL": "http://www.kqed.org/arts/11741855/find-beauty-in-the-streets-of-san-jose-this-summer"
    },
    "id": 72225815
  },
  {
    "type": "Feature",
    "geometry": { "type": "Point", "coordinates": [-121.88403, 37.32733] },
    "properties": {
      "title": "Red Tree",
      "artist": "Dio Mendoeza",
      "description": "Red Tree is located at the southern point of Parque De Los Pobladores, near the intersection of S Market, S 1st and E Reed St.",
      "address": "500 S 1st St",
      "city": "San José",
      "country": "United States",
      "postalCode": "95113",
      "state": "CA"
    },
    "id": 1232497423
  },
  {
    "type": "Feature",
    "geometry": { "type": "Point", "coordinates": [-122.13072, 37.4613] },
    "properties": {
      "title": "Reflection Eternal",
      "artist": "<a href='http://www.muralmusicarts.org/' target='_blank'>MMAP (Mural Music and Arts Project)</a>, lead artist: Omar Ramirez, and students and staff",
      "description": "In 2001, <a href='http://www.muralmusicarts.org/' target='_blank'>MMAP (Mural Music and Arts Project)</a> and lead artist Omar Ramirez collaborated with students and staff at Boys & Girls Clubs of the Peninsula - Moldaw-Zaffaroni Clubhouse to paint this mural. Source: MMAP, http://www.muralmusicarts.org/",
      "address": "2031 Pulgas Avenue",
      "city": "East Palo Alto",
      "country": "United States",
      "postalCode": "94303",
      "state": "CA",
      "sourceURL": "http://www.muralmusicarts.org/"
    },
    "id": 535396009
  },
  {
    "type": "Feature",
    "geometry": { "type": "Point", "coordinates": [-121.91117, 37.33] },
    "properties": {
      "title": "Rise Above",
      "description": "This mural was painted by <a href='https://www.instagram.com/coolhandken/' target='_blank'>Ken Davis</a> and <a href='https://www.instagram.com/peptalks/' target='_blank'>Lauren Napolitano</a>. It is located on the exterior wall near the parking lot of the Food Basket. It was exhibited at 2017 <a href='https://www.powwowsanjose.com/' target='_blank'>POW! WOW! San José</a> in collaboration with <a href='https://www.empiresevenstudios.com' target='_blank'>Empire Seven Studios</a>. <br/> Source: POW!WOW! San José, https://www.powwowsanjose.com/2017-locations/",
      "artist": "<a href='https://www.instagram.com/coolhandken/' target='_blank'>Ken Davis</a> and <a href='https://www.instagram.com/peptalks/' target='_blank'>Lauren Napolitano</a>",
      "address": "1043 Garland Ave",
      "city": "San José",
      "country": "United States",
      "postalCode": "95126",
      "state": "CA",
      "sourceURL": "https://www.powwowsanjose.com/"
    },
    "id": 1862988614
  },
  {
    "type": "Feature",
    "geometry": { "type": "Point", "coordinates": [-121.80189, 37.35242] },
    "properties": {
      "title": "Robert Sanders Elementary School Mural",
      "artist": "<a href='http://www.pauljgonzalezartstudios.com/' target='_blank'>Paul J. Gonzalez</a>",
      "description": "In 2017, Paul J Gonzalez painted this mural at César Chávez Elementary School. View a <a href='https://www.instagram.com/p/BVf9BxbDs9v/?taken-by=pauljgonzalezartist' target='_blank'>photo of the mural</a>. <br/> Source: Paul J. Gonzalez Art Studios, http://www.pauljgonzalezartstudios.com/",
      "address": "3411 Rocky Mountain Dr",
      "city": "San José",
      "country": "United States",
      "postalCode": "95127",
      "state": "CA",
      "sourceURL": "http://www.pauljgonzalezartstudios.com/"
    },
    "id": 2246172590
  },
  {
    "type": "Feature",
    "geometry": { "type": "Point", "coordinates": [-121.89391, 37.34932] },
    "properties": {
      "title": "Ryu",
      "artist": "Horimoto and State of Grace",
      "description": "The mural is located on the exterior side of the Shanghai building, on the top, above the Biscuits store. <br/> Source: Empire Seven Studios, Rasteroids, and Genevieve Santos. “Japantown Artwalk Map.“ Japantown Artwalk, 2017, http://jtownartwalk.com/wp-content/uploads/2016/06/jtown-artwalk-map-1.pdf ",
      "address": "221 Jackson St.",
      "city": "San José",
      "country": "United States",
      "crossStreet": "at Jackson St btwn N 5th St and N 6th St.",
      "postalCode": "95112",
      "state": "CA",
      "sourceURL": "http://jtownartwalk.com/wp-content/uploads/2016/06/jtown-artwalk-map-1.pdf"
    },
    "id": 2613954170
  },
  {
    "type": "Feature",
    "geometry": { "type": "Point", "coordinates": [-121.93162, 37.32116] },
    "properties": {
      "title": "Sacred Mask Mural",
      "artist": "<a href='https://www.carlosrodriguezart.com/' target='_blank'>Carlos Rodriguez</a> and Your Property Next",
      "description": "Sacred Mask mural painted by Carlos Rodriguez and Your Property Next on the side of The Kingston Yard, a local art supplies store and art gallery. Source: Carlos Rodriguez.",
      "address": "418 S Bascom Ave",
      "city": "San José",
      "country": "United States",
      "postalCode": "95128",
      "state": "CA",
      "sourceURL": "https://www.carlosrodriguezart.com/"
    },
    "id": 2865940766
  },
  {
    "type": "Feature",
    "geometry": { "type": "Point", "coordinates": [-121.8867007, 37.3306511] },
    "properties": {
      "title": "Sade",
      "artist": "<a href='https://www.instagram.com/royyaldog/' target='_blank'>Royyal Dog</a>",
      "description": "Mural of legendary singer and songwriter Sade. Sade (Helen Folasade Adu or Sade Adu) is the lead vocalist of the iconic British band Sade, and a British Nigerian singer and songwriter. Royyal Dog painted this mural at the back of The Continental bar. It was produced with POW!WOW! San Jose and Empire Seven Studios. Source: Empire Seven Studios, https://www.empiresevenstudios.com/blog-empiresevenstudios-e7s-artgallery/2018/6/6/royyal-dog-visits-san-jose. Photo by Empire Seven Studios.",
      "image": "img/SadeMural_byRoyyalDog_PhotobyEmpireSevenStudios.jpeg",
      "address": "349 S 1st St",
      "city": "San José",
      "country": "United States",
      "postalCode": "95113",
      "state": "CA",
      "sourceURL": "https://www.empiresevenstudios.com"
    },
    "id": 666599470
  },
  {
    "type": "Feature",
    "geometry": { "type": "Point", "coordinates": [-121.88887, 37.32718] },
    "properties": {
      "title": "San José",
      "artist": "<a href='https://www.instagram.com/j.duh_/' target='_blank'>J.Duh</a>",
      "description": "This mural was painted by <a href='https://www.instagram.com/j.duh_/' target='_blank'>J.Duh</a>, and produced in collaboration with <a href='https://www.exhibitiondistrict.com/' target='_blank'>Exhibition District</a>. It is located on the exterior of the PWC Building on Balbach St. <br/> Source: Exhibition District, https://www.exhibitiondistrict.com/",
      "address": "488 Almaden Blvd, Ste 1800",
      "city": "San José",
      "country": "United States",
      "postalCode": "95113",
      "state": "CA",
      "sourceURL": "https://www.exhibitiondistrict.com/"
    },
    "id": 10667523
  },
  {
    "type": "Feature",
    "geometry": { "type": "Point", "coordinates": [-121.84718, 37.32868] },
    "properties": {
      "title": "Santee Elementary School Mural",
      "artist": "<a href='http://www.pauljgonzalezartstudios.com/' target='_blank'>Paul J. Gonzalez</a>",
      "description": "In 2003, Paul J Gonzalez painted this mural at Santee Elementary School. View a <a href='https://www.facebook.com/photo.php?fbid=10155359373459833&set=a.10155359372279833.1073741848.558994832&type=3&theater' target='_blank'>photo of the mural</a>. <br/> Source: Paul J. Gonzalez Art Studios, http://www.pauljgonzalezartstudios.com/",
      "address": "1313 Audobon Dr",
      "city": "San José",
      "country": "United States",
      "postalCode": "95122",
      "state": "CA",
      "sourceURL": "http://www.pauljgonzalezartstudios.com/"
    },
    "id": 2059911544
  },
  {
    "type": "Feature",
    "geometry": { "type": "Point", "coordinates": [-121.89527, 37.35175] },
    "properties": {
      "title": "Santo Market",
      "image": "https://static1.squarespace.com/static/5681ee28841abae3b7d8dec9/5681f5521c12101f97a4de89/568425c2cbced6a0157418b1/1455301651617/john-barrick_0.jpg?format=500w",
      "artist": "<a href='https://www.johnbsigns.com/' target='_blank'>John Barrick</a>",
      "description": "This mural was painted by John Barrick, and produced in collaboration with <a href='https://www.empiresevenstudios.com' target='_blank'>Empire Seven Studios</a>. <br/><br/><br/>Image Source: <a href='https://www.empiresevenstudios.com' target='_blank'>Empire Seven Studios</a>. <br/> Source: Empire Seven Studios, Rasteroids, and Genevieve Santos. “Japantown Artwalk Map.“ Japantown Artwalk, 2017, http://jtownartwalk.com/wp-content/uploads/2016/06/jtown-artwalk-map-1.pdf",
      "website": "https://www.johnbsigns.com/",
      "address": "245 E Taylor St.",
      "city": "San José",
      "country": "United States",
      "crossStreet": "at N 6th St and Taylor St.",
      "postalCode": "95112",
      "state": "CA",
      "sourceURL": "http://jtownartwalk.com/wp-content/uploads/2016/06/jtown-artwalk-map-1.pdf"
    },
    "id": 238939250
  },
  {
    "type": "Feature",
    "geometry": { "type": "Point", "coordinates": [-121.88667, 37.32101] },
    "properties": {
      "title": "Señora de Los Nopales",
      "artist": "Carlos Rodriguez",
      "description": "This mural was painted by artist <a href='https://www.carlosrodriguezart.com/' target='_blank'>Carlos Rodriguez</a>. It is located on the side of Sidhu Market. This mural was sponsored by The Health Trust. Source: Carlos Rodriguez",
      "address": "801 Locust St",
      "city": "San José",
      "country": "United States",
      "postalCode": "95110",
      "state": "CA",
      "sourceURL": "https://www.carlosrodriguezart.com/"
    },
    "id": 1730870452
  },
  {
    "type": "Feature",
    "geometry": { "type": "Point", "coordinates": [-121.87176, 37.34545] },
    "properties": {
      "title": "Shapeshifters 1-3",
      "artist": " <a href='http://www.sm-artgroup.com/' target='_blank'>Scape Martinez</a>",
      "description": "<a href='http://www.sm-artgroup.com/' target='_blank'>Scape Martinez</a> painted these site-integrated murals inside the Roosevelt Community Center. Read more about <a href='http://www.sm-artgroup.com/project-2/'>Shapeshifter 1</a>, <a href='http://www.sm-artgroup.com/project-5/'>Shapeshifter 2</a>, and <a href='http://www.sm-artgroup.com/ss3/'>Shapeshifter 3</a>.",
      "address": "901 E Santa Clara St",
      "city": "San José",
      "country": "United States",
      "postalCode": "95116",
      "state": "CA",
      "sourceURL": "http://www.sm-artgroup.com/"
    },
    "id": 2749785383
  },
  {
    "type": "Feature",
    "geometry": { "type": "Point", "coordinates": [-121.84928, 37.31914] },
    "properties": {
      "title": "She's Got Game",
      "artist": "Paulette Peterson",
      "description": "This public artwork is located at Yerba Buena High School. Yerba Buena High School students created this game boards with installation artist Paulette Peterson and Yerba Buena's art director John Mora. Six concrete lunch tables were into game boards that challenge players to learn womxn history. To learn more, read the <a href='http://www.esuhsd.org/documents/Board%20-%20Admin/News_Releases_ARCHIVE/News_Release_2001/NR_20010227a.pdf' target='_blank'>press release</a>.",
      "address": "1855 Lucretia Ave",
      "city": "San José",
      "country": "United States",
      "postalCode": "95112",
      "state": "CA",
      "sourceURL": "http://www.esuhsd.org/documents/Board%20-%20Admin/News_Releases_ARCHIVE/News_Release_2001/NR_20010227a.pdf"
    },
    "id": 470750361
  },
  {
    "type": "Feature",
    "geometry": { "type": "Point", "coordinates": [-121.88567, 37.33031] },
    "properties": {
      "title": "SoFA",
      "artist": "Bu Nation, Abel Gonzalez and <a href='http://samrodriguezart.com/' target='_blank'>Sam Rodriguez</a>",
      "description": "This mural is located behind The Studio gym. It was produced by <a href='http://www.svcreates.org/about/history/' target='_blank'>1st Act Silicon Valley</a> and <a href='http://sofadistrict.org/' target='_blank'>SoFA District</a> in 2009.",
      "address": "The Studio, 396 S 1st St",
      "city": "San José",
      "country": "United States",
      "postalCode": "95113",
      "state": "CA",
      "sourceURL": "http://samrodriguezart.com/"
    },
    "id": 3812826217
  },
  {
    "type": "Feature",
    "geometry": { "type": "Point", "coordinates": [-121.89177, 37.32663] },
    "properties": {
      "title": "Sophie Holding the World Up",
      "description": "This mural is painted by El Mac, commissioned by SJMA, in partnership with Empire Seven Studios and the Children’s Discovery Museumm. <br/> Source - information and <br/><br/>image Source: Empire Seven Studios, https://www.empiresevenstudios.com",
      "image": "https://static1.squarespace.com/static/5681ee28841abae3b7d8dec9/5681f5521c12101f97a4de89/5a53b8e8c83025de53beb873/1515436270190/IMG_E59271.jpg?format=750w",
      "artist": "<a href='http://elmac.net/' target='_blank'>El Mac (Miles MacGregor)</a>",
      "website": "http://elmac.net/",
      "address": "180 Woz Way",
      "city": "San José",
      "country": "United States",
      "postalCode": "95110",
      "state": "CA",
      "sourceURL": "https://www.empiresevenstudios.com"
    },
    "id": 3614946777
  },
  {
    "type": "Feature",
    "geometry": { "type": "Point", "coordinates": [-121.88875, 37.33871] },
    "properties": {
      "title": "Spartan Superway",
      "artist": "<a href='https://www.instagram.com/jimmypaints/' target='_blank'>Jim Fonseca</a> and <a href='https://www.instagram.com/itg3000/' target='_blank'>Ivan Gonzalez</a>",
      "description": "This mural was painted by <a href='https://www.instagram.com/jimmypaints/' target='_blank'>Jim Fonseca</a> and <a href='https://www.instagram.com/itg3000/' target='_blank'>Ivan Gonzalez</a>, and produced in collaboration with <a href='https://www.exhibitiondistrict.com/' target='_blank'>Exhibition District</a> and <a href='https://www.empiresevenstudios.com' target='_blank'>Empire Seven Studios</a>. It is located at the Spartan Superway St. John Station. Source: Exhibition District, https://www.exhibitiondistrict.com/",
      "address": "128 E St John St",
      "city": "San José",
      "country": "United States",
      "postalCode": "95113",
      "state": "CA",
      "sourceURL": "https://www.exhibitiondistrict.com/"
    },
    "id": 2006034578
  },
  {
    "type": "Feature",
    "geometry": { "type": "Point", "coordinates": [-121.87183, 37.34556] },
    "properties": {
      "title": "Spiritual Stonehenge",
      "artist": "<a href='http://www.sm-artgroup.com/' target='_blank'>Scape Martinez</a>",
      "description": "Spiritual Stonehenge is a series of vinyl murals located inside and outside the Roosevelt Community Center, at the north entrance view, east view (inside), and juice bar view (inside). To learn more <a href='http://www.sm-artgroup.com/project-3/' target='_blank'>read about the murals.</a> The series were created by <a href='http://www.sm-artgroup.com/' target='_blank'>Scape Martinez</a>. Source: Scape Martinez",
      "address": "901 E Santa Clara St",
      "city": "San José",
      "country": "United States",
      "postalCode": "95116",
      "state": "CA",
      "sourceURL": "http://www.sm-artgroup.com/"
    },
    "id": 1620578265
  },
  {
    "type": "Feature",
    "geometry": { "type": "Point", "coordinates": [-122.14605, 37.47369] },
    "properties": {
      "title": "Sun Stone",
      "artist": "<a href='http://www.muralmusicarts.org/' target='_blank'>MMAP (Mural Music and Arts Project)</a>, lead artist Sarah Woodward, students, staff, and parents of César Chávez Academy and Ravenswood City School District",
      "description": "In 2011, <a href='http://www.muralmusicarts.org/' target='_blank'>MMAP (Mural Music and Arts Project)</a> and lead artist Sarah Woodward collaborated with students, staff, and parents of César Chávez Academy and Ravenswood City School District collaborated to paint this mural. Source: MMAP, http://www.muralmusicarts.org/",
      "address": "2450 Ralmar Avenue",
      "city": "East Palo Alto",
      "country": "United States",
      "postalCode": "94303",
      "state": "CA",
      "sourceURL": "http://www.muralmusicarts.org/"
    },
    "id": 3040656819
  },
  {
    "type": "Feature",
    "geometry": { "type": "Point", "coordinates": [-121.88598, 37.33013] },
    "properties": {
      "title": "Symphony of Style; Color, Light, and Sound",
      "artist": "<a href='http://www.sm-artgroup.com/' target='_blank'>Scape Martinez</a>",
      "description": "This mural is located at the intersection of S 1st Street and E San Salvador Streets. <br/> Source: Lakey, Cherri. “Find Beauty in the Streets of San Jose This Summer.” KQED, KQED, 5 July 2016, http://www.kqed.org/arts/11741855/find-beauty-in-the-streets-of-san-jose-this-summer",
      "website": "http://www.sm-artgroup.com/",
      "address": "S 1st St and E San Salvador St.",
      "city": "San José",
      "country": "United States",
      "postalCode": "95113",
      "state": "CA",
      "sourceURL": "http://www.kqed.org/arts/11741855/find-beauty-in-the-streets-of-san-jose-this-summer"
    },
    "id": 1636631607
  },
  {
    "type": "Feature",
    "geometry": { "type": "Point", "coordinates": [-121.89471, 37.34861] },
    "properties": {
      "title": "Taikocat and Friends",
      "artist": "Yurika Chiba",
      "description": "This artbox was painted by Yurika Chiba. It is located by JT Express. <br/> Source: Empire Seven Studios, Rasteroids, and Genevieve Santos. “Japantown Artwalk Map.“ Japantown Artwalk, 2017, http://jtownartwalk.com/wp-content/uploads/2016/06/jtown-artwalk-map-1.pdf",
      "address": "170 Jackson St",
      "city": "San José",
      "country": "United States",
      "postalCode": "95112",
      "state": "CA",
      "sourceURL": "http://jtownartwalk.com/wp-content/uploads/2016/06/jtown-artwalk-map-1.pdf"
    },
    "id": 2938874054
  },
  {
    "type": "Feature",
    "geometry": { "type": "Point", "coordinates": [-121.82326, 37.34944] },
    "properties": {
      "title": "Thomas P. Ryan Elementary Mural",
      "artist": "<a href='http://www.pauljgonzalezartstudios.com/' target='_blank'>Paul J. Gonzalez</a>",
      "description": "In 2013, Paul J Gonzalez painted two murals at Thomas P. Ryan Elementary School. The murals promote healthy eating, and keeping the body, mind and heart healthy. View a <a href='https://www.facebook.com/photo.php?fbid=10155359404039833&set=a.10155359372279833.1073741848.558994832&type=3&theater' target='_blank'>photo of the mural</a>. <br/> Source: Paul J. Gonzalez Art Studios, http://www.pauljgonzalezartstudios.com/",
      "address": "1241 McGinness Ave",
      "city": "San José",
      "country": "United States",
      "postalCode": "95127",
      "state": "CA",
      "sourceURL": "http://www.pauljgonzalezartstudios.com/"
    },
    "id": 4143006161
  },
  {
    "type": "Feature",
    "geometry": { "type": "Point", "coordinates": [-121.88575, 37.3305] },
    "properties": {
      "title": "Tribute to Rahsaan Roland Kirk",
      "image": "img/Tribute_to_Rahsaan_Roland_Kirk_muralby_RogerOurthiague_ChrisAnway_photoby_YanYinChoy.jpg",
      "artist": "Roger Ourthiague and Chris Anway",
      "description": "This mural is a tribute to the late jazz legend Rahsaan Roland Kirk; it is located behind Cafe Stritch. The mural was painted by Roger Ourthiague and Chris Anway. The mural was produced by <a href='http://www.cafestritch.com/' target='_blank'>Cafe Stritch</a> in 2014. <br/><br/>Image Source: Yan-Yin Choy.  <br/> Source: Lakey, Cherri. “Find Beauty in the Streets of San Jose This Summer.” KQED, KQED, 5 July 2016, http://www.kqed.org/arts/11741855/find-beauty-in-the-streets-of-san-jose-this-summer.",
      "address": "374 S 1st St",
      "city": "San José",
      "country": "United States",
      "postalCode": "95113",
      "state": "CA",
      "sourceURL": "http://www.kqed.org/arts/11741855/find-beauty-in-the-streets-of-san-jose-this-summer"
    },
    "id": 3430106368
  },
  {
    "type": "Feature",
    "geometry": { "type": "Point", "coordinates": [-122.15736, 37.46256] },
    "properties": {
      "title": "Underneath It All",
      "artist": "<a href='http://www.muralmusicarts.org/' target='_blank'>MMAP (Mural Music and Arts Project)</a>, lead artist: Omar Ramirez, students, staff, and volunteers of the Teen Mural Project",
      "description": "In 2001, <a href='http://www.muralmusicarts.org/' target='_blank'>MMAP (Mural Music and Arts Project)</a> and lead artist Omar Ramirez collaborated with students, staff, and volunteers of the Teen Mural Project to complete this mural at Willow Oaks Elementary. Source: MMAP, http://www.muralmusicarts.org/",
      "address": "620 Willow Road",
      "city": "Menlo Park",
      "country": "United States",
      "postalCode": "94025",
      "state": "CA",
      "sourceURL": "http://www.muralmusicarts.org/"
    },
    "id": 2016171545
  },
  {
    "type": "Feature",
    "geometry": { "type": "Point", "coordinates": [-121.93194, 37.32262] },
    "properties": {
      "title": "Untitled Mural",
      "artist": "<a href='https://www.instagram.com/fco1980/' target='_blank'>Francisco Ramirez</a>, Alexander Flores and Ana Gonzalez",
      "description": "The mural features hummingbirds, gears, chuparosa, yarn, industrialization, and dandelions. This mural is located behind Time Deli near Bascom and San Carlos St. <br/> Source: Franciso Ramirez.",
      "address": "349 S Bascom Ave",
      "city": "San José",
      "country": "United States",
      "postalCode": "95128",
      "state": "CA",
      "sourceURL": "https://www.instagram.com/fco1980/"
    },
    "id": 1730799241
  },
  {
    "type": "Feature",
    "geometry": { "type": "Point", "coordinates": [-121.89538, 37.34864] },
    "properties": {
      "title": "Untitled Mural",
      "artist": "<a href='https://www.instagram.com/fco1980/' target='_blank'>Francisco Ramirez</a>",
      "description": "This mural of Godzilla, King Kong, Voltron, Ultraman, and Beast King was painted by Francisco Ramirez. It is located on the exterior of Zonkey, on the corner of 4th and Jackson St",
      "website": "https://www.instagram.com/fco1980/",
      "address": "2161 Jackson St",
      "city": "San José",
      "country": "United States",
      "postalCode": "95112",
      "state": "CA",
      "sourceURL": "https://www.instagram.com/fco1980/"
    },
    "id": 1105186498
  },
  {
    "type": "Feature",
    "geometry": { "type": "Point", "coordinates": [-121.87376, 37.32312] },
    "properties": {
      "title": "Untitled Mural",
      "artist": "<a href='https://www.instagram.com/fco1980/' target='_blank'>Francisco Ramirez</a>",
      "description": "This mural of butterflies, gears and hands is located at Art Ark Gallery. <br/> Source: Franciso Ramirez.",
      "website": "https://www.instagram.com/fco1980/",
      "address": "1035 S 6th St",
      "city": "San José",
      "country": "United States",
      "postalCode": "95112",
      "state": "CA",
      "sourceURL": "https://www.instagram.com/fco1980/"
    },
    "id": 3913083978
  },
  {
    "type": "Feature",
    "geometry": { "type": "Point", "coordinates": [-121.88673, 37.33789] },
    "properties": {
      "title": "Untitled Mural",
      "artist": "<a href='https://www.instagram.com/fco1980/' target='_blank'>Francisco Ramirez</a>",
      "description": "Located near 4th and Santa Clara St.",
      "website": "https://www.instagram.com/fco1980/",
      "address": "200 E Santa Clara St",
      "city": "San José",
      "country": "United States",
      "postalCode": "95113",
      "state": "CA",
      "sourceURL": "https://www.instagram.com/fco1980/"
    },
    "id": 924498581
  },
  {
    "type": "Feature",
    "geometry": { "type": "Point", "coordinates": [-121.90051, 37.32971] },
    "properties": {
      "title": "Untitled Mural",
      "description": "This mural was painted by <a href='http://www.jetromartinez.com/' target='_blank'>Jet Martinez</a> and exhibited at 2017 <a href='https://www.powwowsanjose.com/' target='_blank'>POW! WOW! San José</a> in collaboration with <a href='https://www.empiresevenstudios.com' target='_blank'>Empire Seven Studios</a>. It is located on the exterior wall of Poor House Bistro, on the side facing Montgomery Street. <br/> Source: POW! WOW! San José, 2017 Mural & Event Locations https://www.powwowsanjose.com/2017-locations/",
      "website": "http://www.jetromartinez.com/",
      "artist": "<a href='http://www.jetromartinez.com/' target='_blank'>Jet Martinez</a>",
      "address": "87 S Autumn St",
      "city": "San José",
      "country": "United States",
      "postalCode": "95110",
      "state": "CA",
      "sourceURL": "https://www.powwowsanjose.com/"
    },
    "id": 1094246749
  },
  {
    "type": "Feature",
    "geometry": { "type": "Point", "coordinates": [-121.89389, 37.33281] },
    "properties": {
      "title": "Untitled Mural",
      "description": "This mural was painted by pro_gress ural exhibited at the 2017 <a href='https://www.powwowsanjose.com/' target='_blank'>POW! WOW! San José</a> in collaboration with <a href='https://www.empiresevenstudios.com' target='_blank'>Empire Seven Studios</a>. <br/> Source: POW! WOW! San José, 2017 Mural & Event Locations https://www.powwowsanjose.com/2017-locations/",
      "artist": "pro_gress",
      "address": "44 S Almaden Blvd",
      "city": "San José",
      "country": "United States",
      "postalCode": "95113",
      "state": "CA",
      "sourceURL": "https://www.powwowsanjose.com/"
    },
    "id": 1187067127
  },
  {
    "type": "Feature",
    "geometry": { "type": "Point", "coordinates": [-121.90028, 37.32966] },
    "properties": {
      "title": "Untitled Mural",
      "description": "This mural was painted by <a href='http://caseygray.com/' target='_blank'>Casey Gray</a> and exhibited at the 2017 <a href='https://www.powwowsanjose.com/' target='_blank'>POW! WOW! San José</a> in collaboration with <a href='https://www.empiresevenstudios.com' target='_blank'>Empire Seven Studios</a>. <br/> Source: POW! WOW! San José, 2017 Mural & Event Locations https://www.powwowsanjose.com/2017-locations/",
      "website": "http://caseygray.com/",
      "artist": "<a href='http://caseygray.com/' target='_blank'>Casey Gray</a>",
      "address": "87 S Autumn St",
      "city": "San José",
      "country": "United States",
      "postalCode": "95110",
      "state": "CA",
      "sourceURL": "https://www.powwowsanjose.com/"
    },
    "id": 3195785146
  },
  {
    "type": "Feature",
    "geometry": { "type": "Point", "coordinates": [-121.88453, 37.32851] },
    "properties": {
      "title": "Untitled Mural",
      "description": "This mural was painted by <a href='https://www.instagram.com/aarondelacruz/' target='_blank'>Aaron De La Cruz</a>; it is located on the exterior wall of <a href='http://maclaarte.org/' target='_blank'>MACLA.</a> <br/> Source: Lakey, Cherri. “Find Beauty in the Streets of San Jose This Summer.” KQED, KQED, 5 July 2016, http://www.kqed.org/arts/11741855/find-beauty-in-the-streets-of-san-jose-this-summer",
      "artist": "<a href='https://www.instagram.com/aarondelacruz/' target='_blank'>Aaron De La Cruz</a>",
      "address": "510 S 1st St.",
      "city": "San José",
      "country": "United States",
      "postalCode": "95113",
      "state": "CA",
      "sourceURL": "http://www.kqed.org/arts/11741855/find-beauty-in-the-streets-of-san-jose-this-summer"
    },
    "id": 78330560
  },
  {
    "type": "Feature",
    "geometry": { "type": "Point", "coordinates": [-121.91176, 37.33177] },
    "properties": {
      "title": "Untitled Mural",
      "artist": "<a href='https://www.instagram.com/fco1980/' target='_blank'>Francisco Ramirez</a> and Rick Aswell",
      "description": "This mural of the fruits and Southern Pacific Railroad train car is located on the exterior of Crema Coffee Roasting, near its parking lot, on  The Alameda in San José.",
      "address": "1202 The Alameda",
      "city": "San José",
      "country": "United States",
      "postalCode": "95126",
      "state": "CA",
      "sourceURL": "https://www.instagram.com/fco1980/"
    },
    "id": 88538664
  },
  {
    "type": "Feature",
    "geometry": { "type": "Point", "coordinates": [-121.89095, 37.33652] },
    "properties": {
      "title": "Untitled Mural",
      "description": "Mural exhibited at the 2017 <a href='https://www.powwowsanjose.com/' target='_blank'>POW! WOW! San José</a> in collaboration with <a href='https://www.empiresevenstudios.com' target='_blank'>Empire Seven Studios</a>. <br/> Source: POW!WOW! San José, https://www.powwowsanjose.com/2017-locations/",
      "artist": "Ricky Watts",
      "address": "45 N 1st Street",
      "city": "San José",
      "country": "United States",
      "postalCode": "95113",
      "state": "CA",
      "sourceURL": "https://www.powwowsanjose.com/"
    },
    "id": 3693605911
  },
  {
    "type": "Feature",
    "geometry": { "type": "Point", "coordinates": [-121.89177, 37.32663] },
    "properties": {
      "title": "Untitled Mural",
      "description": "This mural is painted by Jaque Fragua; it was commissioned by SJMA, in partnership with Empire Seven Studios and the Children’s Discovery Museumm. <br/><br/> Source - information and <br/><br/>image Source: Empire Seven Studios, https://www.empiresevenstudios.com",
      "image": "https://static1.squarespace.com/static/5681ee28841abae3b7d8dec9/5a4ea0a271c10b3b6aac7849/5a4ea0a653450ac4a903bef5/1515102529539/IMG_5354.JPG?format=2500w",
      "artist": "<a href='http://jaquefragua.com/' target='_blank'>Jaque Fragua</a>",
      "website": "http://jaquefragua.com/",
      "address": "180 Woz Way",
      "city": "San José",
      "country": "United States",
      "postalCode": "95110",
      "state": "CA",
      "sourceURL": "https://www.empiresevenstudios.com"
    },
    "id": 1374429604
  },
  {
    "type": "Feature",
    "geometry": { "type": "Point", "coordinates": [-121.88385, 37.32748] },
    "properties": {
      "title": "Untitled Mural",
      "artist": "<a href='https://www.instagram.com/fco1980/' target='_blank'>Francisco Ramirez</a> and Ana Gonzalez",
      "description": "This mural is located at the corner of Reed and Market",
      "address": "S Market St",
      "city": "San José",
      "country": "United States",
      "postalCode": "95113",
      "state": "CA"
    },
    "id": 1752997548
  },
  {
    "type": "Feature",
    "geometry": { "type": "Point", "coordinates": [-121.88577, 37.33023] },
    "properties": {
      "title": "Untitled Mural",
      "artist": "<a herf='https://deniskorkh.tumblr.com/' target='_blank'>Denis Korkh</a>",
      "website": "https://deniskorkh.tumblr.com/",
      "description": "There are three murals side-by-side on the exterior wall of The Studio Gym.  The mural on the right side of the wall is by Denis Korkh. <br/> Source: Lakey, Cherri. “Find Beauty in the Streets of San Jose This Summer.” KQED, KQED, 5 July 2016, http://www.kqed.org/arts/11741855/find-beauty-in-the-streets-of-san-jose-this-summer.",
      "address": "396 S 1st St.",
      "city": "San José",
      "country": "United States",
      "postalCode": "95113",
      "state": "CA",
      "sourceURL": "http://www.kqed.org/arts/11741855/find-beauty-in-the-streets-of-san-jose-this-summer"
    },
    "id": 2149541169
  },
  {
    "type": "Feature",
    "geometry": { "type": "Point", "coordinates": [-121.88584, 37.33021] },
    "properties": {
      "title": "Untitled Mural",
      "artist": "<a href='http://poesiatranscend.com/' target='_blank'>Poesia</a>",
      "website": "http://poesiatranscend.com/",
      "description": "There are three murals side-by-side on the exterior wall of The Studio Gym, on the San Salvador St side of the building. The mural on the left side is by <a href='http://poesiatranscend.com/' target='_blank'>Poesia</a>. The murals were supported by <a href='http://www.phantomgalleries.com/' target='_blank'>Phantom Galleries</a>  and the SubZERO Festival. <br/> Source: Lakey, Cherri. “Find Beauty in the Streets of San Jose This Summer.” KQED, KQED, 5 July 2016, http://www.kqed.org/arts/11741855/find-beauty-in-the-streets-of-san-jose-this-summer.",
      "address": "396 S 1st St.",
      "city": "San José",
      "country": "United States",
      "postalCode": "95113",
      "state": "CA",
      "sourceURL": "http://www.kqed.org/arts/11741855/find-beauty-in-the-streets-of-san-jose-this-summer"
    },
    "id": 4156089707
  },
  {
    "type": "Feature",
    "geometry": { "type": "Point", "coordinates": [-121.88942, 37.33619] },
    "properties": {
      "title": "Untitled Mural",
      "image": "img/LocalColorHeartMural_by_FranciscoRamirez_photoby_YanYinChoy.jpg",
      "artist": "<a href='https://www.instagram.com/fco1980/' target='_blank'>Francisco Ramirez</a>",
      "description": "You can find this mural at Fountain Alley. This mural was produced in collaboration with <a href='https://www.exhibitiondistrict.com/' target='_blank'>Exhibition District</a>. <br/><br/>Image Source: Yan-Yin Choy.",
      "website": "https://www.instagram.com/fco1980/",
      "address": "7 Fountain Alley",
      "city": "San José",
      "country": "United States",
      "crossStreet": "at Fountain Alley and S 2nd Street",
      "postalCode": "95113",
      "state": "CA",
      "sourceURL": "https://www.exhibitiondistrict.com/"
    },
    "id": 2475573985
  },
  {
    "type": "Feature",
    "geometry": { "type": "Point", "coordinates": [-121.90828, 37.32002] },
    "properties": {
      "title": "Untitled Mural",
      "artist": "<a href='https://www.instagram.com/fco1980/' target='_blank'>Francisco Ramirez</a>",
      "description": "This mural is located at Good Karma Bikes. Source: Franciso Ramirez, https://www.instagram.com/fco1980/.",
      "website": "https://www.instagram.com/fco1980/",
      "address": "460 Lincoln Ave #25",
      "city": "San José",
      "country": "United States",
      "postalCode": "95126",
      "state": "CA",
      "sourceURL": "https://www.instagram.com/fco1980/"
    },
    "id": 102804528
  },
  {
    "type": "Feature",
    "geometry": { "type": "Point", "coordinates": [-121.89815, 37.32578] },
    "properties": {
      "title": "Untitled Mural - San José Learning Center",
      "description": "Mural painted by <a href='https://www.instagram.com/kristinfarr/' target='_blank'>Kristin Farr</a> and exhibited at the 2017 <a href='https://www.powwowsanjose.com/' target='_blank'>POW! WOW! San José</a> in collaboration with <a href='https://www.empiresevenstudios.com' target='_blank'>Empire Seven Studios</a>. <br/> Source: POW! WOW! San José, 2017 Mural & Event Locations https://www.powwowsanjose.com/2017-locations/",
      "artist": "<a href='https://www.instagram.com/kristinfarr/' target='_blank'>Kristin Farr</a>",
      "address": "490 W San Carlos St",
      "city": "San José",
      "country": "United States",
      "postalCode": "95110",
      "state": "CA",
      "sourceURL": "https://www.powwowsanjose.com/"
    },
    "id": 2936091636
  },
  {
    "type": "Feature",
    "geometry": { "type": "Point", "coordinates": [-121.88972, 37.33526] },
    "properties": {
      "title": "Untitled Mural at Be The Change Yoga",
      "artist": "<a href='https://www.instagram.com/fco1980/' target='_blank'>Francisco Ramirez</a> and <a href='https://www.instagram.com/maxdehart/' target='_blank'>Max DeHart</a>. <br/> Source: Franciso Ramirez, https://www.instagram.com/fco1980/.",
      "description": "This mural is located at Be the Change Yoga",
      "address": "52 S 1st St, Suite 320",
      "city": "San José",
      "country": "United States",
      "postalCode": "95113",
      "state": "CA",
      "sourceURL": "https://www.instagram.com/fco1980/"
    },
    "id": 3739727352
  },
  {
    "type": "Feature",
    "geometry": { "type": "Point", "coordinates": [-121.89137, 37.33591] },
    "properties": {
      "title": "Untitled Mural at Chase Bank",
      "artist": "<a href='https://www.instagram.com/evilrobot42/' target='_blank'>Lacey Bryant",
      "description": "<a href='https://www.instagram.com/evilrobot42/' target='_blank'>Lacey Bryant</a> painted this six-panel mural. It was produced in collaboration with <a href='https://www.exhibitiondistrict.com/' target='_blank'>Exhibition District</a>, San José Downtown Association and Chase Bank. It is located on the exterior of the Chase building on Santa Clara St. <br/> View a <a href='https://www.instagram.com/p/BhZIFD8BVOk/?taken-by=evilrobot42' target='_blank'>photo of the mural</a>. Source: Exhibition District, https://www.exhibitiondistrict.com/",
      "address": "55 W Santa Clara St",
      "city": "San José",
      "country": "United States",
      "postalCode": "95113",
      "state": "CA",
      "sourceURL": "https://www.exhibitiondistrict.com/"
    },
    "id": 1789235513
  },
  {
    "type": "Feature",
    "geometry": { "type": "Point", "coordinates": [-121.88722, 37.34927] },
    "properties": {
      "title": "Untitled Mural at Guadalajara Restaurante",
      "description": "This mural is on the top of Guadalajara Restaurante facing East Empire St. It was painted by <a href='http://www.csuchico.edu/nsci/alumni-friends/distinguished-alumni/2007.shtml' target='_blank'>Edward Earl Tarver III</a> in 1986 and restored in 2007. <br/><br/>Image Source: <a href='https://www.flickr.com/people/empirestreet/' target='_blank'>Empire St -- Jackie Vasquez</a>. Learn more about the <a href='https://www.mercurynews.com/2007/08/30/rodriguez-chemist-returns-to-san-jose-to-update-mural/' target='_blank'>mural</a>.",
      "image": "https://farm1.staticflickr.com/795/27223805168_7a0e664dcd_z.jpg",
      "artist": "Edward Earl Tarver III",
      "address": "452 E Empire St",
      "city": "San José",
      "country": "United States",
      "postalCode": "95112",
      "state": "CA",
      "sourceURL": "https://www.flickr.com/people/empirestreet"
    },
    "id": 2389708145
  },
  {
    "type": "Feature",
    "geometry": { "type": "Point", "coordinates": [-121.87633, 37.3449] },
    "properties": {
      "title": "Untitled mural by Op",
      "image": "https://static1.squarespace.com/static/5681ee28841abae3b7d8dec9/5681f5521c12101f97a4de89/59728a5d1b631b490c816ae3/1500678750196img_9003.jpg",
      "description": "This mural was done by Op, and produced in collaboration with <a href='https://www.empiresevenstudios.com' target='_blank'>Empire Seven Studios</a>. It is located near N 16th Street and E St. John Street. <br/><br/>Image Source: <a href='https://www.empiresevenstudios.com' target='_blank'>Empire Seven Studios</a>. Source: Empire Seven Studios, https://www.empiresevenstudios.com",
      "artist": "<a href='https://www.instagram.com/ohhpeeskee/' target='_blank'>Op</a>",
      "website": "https://www.instagram.com/ohhpeeskee/",
      "address": "748 E St John St.",
      "city": "San José",
      "country": "United States",
      "crossStreet": "at N 16th and E St. John St.",
      "postalCode": "95112",
      "state": "CA",
      "sourceURL": "https://www.empiresevenstudios.com"
    },
    "id": 3426873764
  },
  {
    "type": "Feature",
    "geometry": { "type": "Point", "coordinates": [-121.89133, 37.34789] },
    "properties": {
      "title": "Untitled Murals",
      "description": "Murals exhibited at 2017 <a href='https://www.powwowsanjose.com/' target='_blank'>POW! WOW! San José</a> in collaboration with <a href='https://www.empiresevenstudios.com' target='_blank'>Empire Seven Studios</a>",
      "artist": "<a href='http://instagram.com/gigamelted/' target='_blank'>Amine Rastgar</a>, <a href='http://instagram.com/chgyyrscrenammme/' target='_blank'>Robbie Api</a>, <a href='http://instagram.com/griffinone/' target='_blank'>Griffin</a>, Doper, and <a href='https://www.instagram.com/wispertfl/' target='_blank'>Wisper</a>. <br/> Source: POW! WOW! San José, 2017 Mural & Event Locations https://www.powwowsanjose.com/2017-locations/",
      "address": "251 E Empire Street",
      "city": "San José",
      "country": "United States",
      "postalCode": "95112",
      "state": "CA",
      "sourceURL": "https://www.powwowsanjose.com/"
    },
    "id": 1631123965
  },
  {
    "type": "Feature",
    "geometry": { "type": "Point", "coordinates": [-121.84778, 37.34069] },
    "properties": {
      "title": "Veggielution Farm Outdoor Kitchen Mural",
      "description": "<a href='http://www.muralmusicarts.org/' target='_blank'>MMAP</a> painted this mural with NVIDIA volunteers at Veggielution, as part of NVIDIA's Project Inspire in 2012. MMAP artist Sarah Woodward and NVIDIA engineer Randy Reynolds collaborated to design the mural. Sarah Woodward, <a href='http://www.sm-artgroup.com/' target='_blank'>Scape Martinez</a>, Laura Nagle and Yetunde Olagbaju completed the mural highlights. The mission was commissioned by NVIDIA. You can find this mural at Veggielution community farm's outdoor kitchen at Emma Prusch Park in San José. Read this <a href='http://www.muralmusicarts.org/blog/nvidia-2012/' target='_blank'>blog</a> to learn more. <br/><br/><br/>Image Source: Yan-Yin Choy. Source: MMAP, http://www.muralmusicarts.org/blog/nvidia-2012/",
      "image": "img/UntitledMural_LocatedAtVeggielutionFarm_SanJose_photoby_YanYinChoy.jpg",
      "artist": "<a href='http://www.muralmusicarts.org/' target='_blank'>MMAP (Mural Music and Arts Project)</a> team, including Sarah Woodward, Scape Martinez, Laura Nagle and Yetunde Olagbaju; Randy Reynolds and NVIDIA volunteers",
      "address": "647 S King Rd",
      "city": "San José",
      "country": "United States",
      "postalCode": "95116",
      "state": "CA",
      "sourceURL": "http://www.muralmusicarts.org/"
    },
    "id": 3972012967
  },
  {
    "type": "Feature",
    "geometry": { "type": "Point", "coordinates": [-121.89515, 37.33436] },
    "properties": {
      "title": "Vida Abundante",
      "description": "The mural, Vida Abundante, or Life Abundant in Face of Death Imminent, by Bay Area tattoo artist <a href='https://www.instagram.com/tattoosbyjimminer/' target='_blank'>Jim Miner</a> in collaboration with the <a href='https://www.exhibitiondistrict.com/' target='_blank'>Exhibition District</a>, was painted in collaboration with dozens of volunteers. It exhibited August 2016. <br/><br/>Image Source: <a href='https://www.exhibitiondistrict.com/' target='_blank'>Exhibition District</a>. <br/> Source: Exhibition District, https://www.exhibitiondistrict.com/",
      "image": "https://static.wixstatic.com/media/382b8e_fecee55573074d63941d24c993ed5574~mv2_d_4809_1973_s_2.jpg/v1/fill/w_480,h_197,al_c,q_90,usm_0.66_1.00_0.01/382b8e_fecee55573074d63941d24c993ed5574~mv2_d_4809_1973_s_2.webp",
      "artist": "Jim Miner",
      "address": "233 W Santa Clara St",
      "city": "San José",
      "country": "United States",
      "crossStreet": "On the side of Hotel De Anza, on Santa Clara St., between Notre Dame Ave. and Almaden Blvd.",
      "postalCode": "95113",
      "state": "CA",
      "sourceURL": "https://www.exhibitiondistrict.com/"
    },
    "id": 3628217701
  },
  {
    "type": "Feature",
    "geometry": { "type": "Point", "coordinates": [-121.86208, 37.34577] },
    "properties": {
      "title": "Virgin de Guadalupe",
      "artist": "Unknown",
      "description": "Source: Velasquez, Carlos. “POW! WOW! San Jose 2017 Mural Ride.“ Ride With GPS, 29, Oct. 2017, https://ridewithgps.com/routes/25823991",
      "address": "195 S 28th St.",
      "city": "San José",
      "country": "United States",
      "crossStreet": "at S 28th and E San Antonio St.",
      "postalCode": "95116",
      "state": "CA",
      "sourceURL": "https://ridewithgps.com/routes/25823991"
    },
    "id": 646621349
  },
  {
    "type": "Feature",
    "geometry": { "type": "Point", "coordinates": [-121.89211, 37.35021] },
    "properties": {
      "title": "Wavy",
      "artist": "Jesico",
      "address": "600 N 7th St.",
      "description": "<br/> Source: Empire Seven Studios, Rasteroids, and Genevieve Santos. “Japantown Artwalk Map.“ Japantown Artwalk, 2017, http://jtownartwalk.com/wp-content/uploads/2016/06/jtown-artwalk-map-1.pdf",
      "city": "San José",
      "country": "United States",
      "crossStreet": "at N 7th St and Jackston St.",
      "postalCode": "95112",
      "state": "CA",
      "sourceURL": "http://jtownartwalk.com/wp-content/uploads/2016/06/jtown-artwalk-map-1.pdf"
    },
    "id": 2436481277
  },
  {
    "type": "Feature",
    "geometry": { "type": "Point", "coordinates": [-122.1276, 37.46786] },
    "properties": {
      "title": "We Shouldn't Have to Paint This Mural to Preserve Our Indigenous Baylands",
      "artist": "<a href='http://www.muralmusicarts.org/' target='_blank'>MMAP (Mural Music and Arts Project)</a>, lead artist: Omar Ramirez, and students, staff and community members",
      "description": "In 2002, <a href='http://www.muralmusicarts.org/' target='_blank'>MMAP (Mural Music and Arts Project)</a> and lead artist Omar Ramirez collaborated with , and students, staff and community members to paint this mural at the East Palo Alto Charter School. Source: MMAP, http://www.muralmusicarts.org/",
      "address": "1286 Runnymede Street",
      "city": "East Palo Alto",
      "country": "United States",
      "postalCode": "94303",
      "state": "CA",
      "sourceURL": "http://www.muralmusicarts.org/"
    },
    "id": 3963538429
  },
  {
    "type": "Feature",
    "geometry": { "type": "Point", "coordinates": [-121.88576, 37.32836] },
    "properties": {
      "title": "What You Are I Once Was",
      "image": "https://static.wixstatic.com/media/382b8e_e14ee182056a4dd4b597e39b0da07316~mv2.jpg/v1/fill/w_1200,h_338,al_c,q_90,usm_0.66_1.00_0.01/382b8e_e14ee182056a4dd4b597e39b0da07316~mv2.webp",
      "artist": "Stephanie Azevedo",
      "description": "This mural was painted by <a href='https://www.instagram.com/stefari/' target='_blank'>Stephanie Azevedo</a> and produced in collaboration with <a href='https://www.exhibitiondistrict.com/' target='_blank'>Exhibition District</a> in 2015. <br/><br/>Image Source: <a href='https://www.exhibitiondistrict.com/' target='_blank'>Exhibition District</a> in 2015. You can find it on the side of the Brazilian Blowout Bar by the parking.",
      "address": "489 S Market St.",
      "city": "San José",
      "country": "United States",
      "crossStreet": "at S Market St and W William St.",
      "postalCode": "95113",
      "state": "CA",
      "sourceURL": "https://www.exhibitiondistrict.com/"
    },
    "id": 3338157819
  },
  {
    "type": "Feature",
    "geometry": { "type": "Point", "coordinates": [-121.84772, 37.34525] },
    "properties": {
      "title": "Zona Rosa",
      "description": "This mural was painted by <a href='https://www.instagram.com/aarondelacruz/' target='_blank'>Aaron De La Cruz</a>. It was exhibited at 2017 <a href='https://www.powwowsanjose.com/' target='_blank'>POW! WOW! San José</a> in collaboration with <a href='https://www.empiresevenstudios.com' target='_blank'>Empire Seven Studios</a>. It is located in the Pink Elephant Shopping Plaza, on the exterior wall facing Virginia Avenue. <br/><br/> Source: POW! WOW! San José, 2017 Mural & Event Locations https://www.powwowsanjose.com/2017-locations/",
      "artist": "<a href='http://www.aarondelacruz.com/' target='_blank'>Aaron De La Cruz</a>",
      "address": "440 S King Road",
      "city": "San José",
      "country": "United States",
      "postalCode": "95116",
      "state": "CA",
      "sourceURL": "https://www.powwowsanjose.com/"
    },
    "id": 2404080336
  }
]
